"","city","state","city_size","mode","n","percent","moe","state_abb","state_region","type","lon","lat"
"1","Aberdeen","South Dakota","Small","Bike",110,0.8,0.5,"SD","North Central","city",-98.4864829,45.4646985
"2","Acworth","Georgia","Small","Bike",0,0,0.4,"GA","South","city",-84.6768796,34.0659329
"3","Addison","Illinois","Small","Bike",43,0.2,0.3,"IL","North Central","village",-87.9889556,41.931696
"4","Adelanto","California","Small","Bike",0,0,0.5,"CA","West","city",-117.409215,34.5827699
"5","Adrian","Michigan","Small","Bike",121,1.5,1,"MI","North Central","city",-84.0371659,41.8975471
"6","Agawam Town","Massachusetts","Small","Bike",0,0,0.2,"MA","Northeast","city",-72.6148117,42.0695391
"7","Agoura Hills","California","Small","Bike",84,0.8,1.1,"CA","West","city",-118.7616764,34.1533395
"8","Aiken","South Carolina","Small","Bike",23,0.2,0.3,"SC","South","city",-81.7195533,33.5604168
"9","Alabaster","Alabama","Small","Bike",0,0,0.2,"AL","South","city",-86.8163773,33.2442813
"10","Alameda","California","Small","Bike",576,1.5,0.4,"CA","West","city",-122.2821855,37.7798721
"11","Alamogordo","New Mexico","Small","Bike",35,0.3,0.2,"NM","West","city",-105.960265,32.8995325
"12","Albany","Georgia","Small","Bike",77,0.3,0.2,"GA","South","city",-84.155741,31.5785074
"13","Albany","New York","Small","Bike",419,0.9,0.3,"NY","Northeast","city",-73.7562317,42.6525793
"14","Albany","Oregon","Small","Bike",281,1.3,0.6,"OR","West","city",-123.1059282,44.6365107
"15","Albertville","Alabama","Small","Bike",2,0,0.1,"AL","South","city",-86.2088669,34.2675937
"16","Alexandria","Louisiana","Small","Bike",100,0.5,0.3,"LA","South","city",-92.4451371,31.3112936
"17","Algonquin","Illinois","Small","Bike",109,0.7,0.6,"IL","North Central","village",-88.2942493,42.1655801
"18","Alhambra","California","Small","Bike",198,0.5,0.2,"CA","West","city",-118.1270146,34.095287
"19","Aliso Viejo","California","Small","Bike",85,0.3,0.2,"CA","West","city",-117.7262981,33.5684605
"20","Allen","Texas","Small","Bike",21,0,0.1,"TX","South","city",-96.6705503,33.1031744
"21","Allen Park","Michigan","Small","Bike",55,0.5,0.4,"MI","North Central","city",-83.2110375,42.2575385
"22","Alliance","Ohio","Small","Bike",19,0.2,0.2,"OH","North Central","city",-81.1059309,40.9153362
"23","Alpharetta","Georgia","Small","Bike",0,0,0.1,"GA","South","city",-84.2940899,34.0753762
"24","Altamonte Springs","Florida","Small","Bike",282,1.3,0.7,"FL","South","city",-81.3656242,28.6611089
"25","Alton","Illinois","Small","Bike",10,0.1,0.1,"IL","North Central","city",-90.1842764,38.8906038
"26","Altoona","Pennsylvania","Small","Bike",33,0.2,0.2,"PA","Northeast","city",-78.3947359,40.5186809
"27","Alvin","Texas","Small","Bike",127,1.2,0.7,"TX","South","city",-95.2441009,29.4238472
"28","American Fork","Utah","Small","Bike",32,0.3,0.3,"UT","West","city",-111.7957645,40.3768954
"29","Ames","Iowa","Small","Bike",808,2.5,0.6,"IA","North Central","city",-93.6319131,42.0307812
"30","Anderson","Indiana","Small","Bike",96,0.4,0.2,"IN","North Central","city",-85.6802541,40.1053196
"31","Anderson","South Carolina","Small","Bike",10,0.1,0.2,"SC","South","city",-82.6501332,34.5034394
"32","Andover","Minnesota","Small","Bike",22,0.1,0.2,"MN","North Central","city",-93.2913405,45.2332984
"33","Ankeny","Iowa","Small","Bike",52,0.2,0.2,"IA","North Central","city",-93.6001278,41.7317884
"34","Annapolis","Maryland","Small","Bike",41,0.2,0.2,"MD","South","city",-76.4921829,38.9784453
"35","Anniston","Alabama","Small","Bike",12,0.1,0.2,"AL","South","city",-85.8316318,33.6598257
"36","Apache Junction","Arizona","Small","Bike",71,0.6,0.6,"AZ","West","city",-111.5495777,33.4150485
"37","Apex","North Carolina","Small","Bike",0,0,0.2,"NC","South","town",-78.8502856,35.732652
"38","Apopka","Florida","Small","Bike",79,0.4,0.4,"FL","South","city",-81.5322149,28.6934076
"39","Apple Valley","Minnesota","Small","Bike",79,0.3,0.2,"MN","North Central","city",-93.21772,44.7319094
"40","Apple Valley","California","Small","Bike",21,0.1,0.1,"CA","West","town",-117.1858759,34.5008311
"41","Appleton","Wisconsin","Small","Bike",399,1.1,0.4,"WI","North Central","city",-88.4153847,44.2619309
"42","Arcadia","California","Small","Bike",90,0.4,0.2,"CA","West","city",-118.0353449,34.1397292
"43","Ardmore","Oklahoma","Small","Bike",19,0.2,0.3,"OK","South","city",-97.1436254,34.1742611
"44","Arlington Heights","Illinois","Small","Bike",154,0.4,0.2,"IL","North Central","village",-87.9806265,42.0883603
"45","Arnold","Missouri","Small","Bike",0,0,0.3,"MO","North Central","city",-90.3776187,38.4328317
"46","Arvin","California","Small","Bike",0,0,0.6,"CA","West","city",-118.833105,35.2017986
"47","Asheboro","North Carolina","Small","Bike",10,0.1,0.2,"NC","South","city",-79.8136446,35.7079146
"48","Asheville","North Carolina","Small","Bike",428,1.1,0.3,"NC","South","city",-82.5514869,35.5950581
"49","Ashland","Kentucky","Small","Bike",0,0,0.4,"KY","South","city",-82.6379387,38.4784144
"50","Ashland","Ohio","Small","Bike",49,0.6,0.4,"OH","North Central","city",-82.3182178,40.8686675
"51","Ashland","Oregon","Small","Bike",560,6.2,1.9,"OR","West","city",-122.7094767,42.1945758
"52","Atascadero","California","Small","Bike",58,0.4,0.4,"CA","West","city",-120.6707255,35.4894169
"53","Athens","Alabama","Small","Bike",0,0,0.4,"AL","South","city",-86.9716741,34.8028661
"54","Athens","Ohio","Small","Bike",208,2.2,0.9,"OH","North Central","city",-82.1012554,39.3292396
"55","Atlantic City","New Jersey","Small","Bike",166,1.1,0.6,"NJ","Northeast","city",-74.4229266,39.3642834
"56","Attleboro","Massachusetts","Small","Bike",39,0.2,0.2,"MA","Northeast","city",-71.2856082,41.9445441
"57","Atwater","California","Small","Bike",18,0.2,0.2,"CA","West","city",-120.609084,37.3477174
"58","Auburn","Alabama","Small","Bike",475,2,0.5,"AL","South","city",-85.4807825,32.6098566
"59","Auburn","Maine","Small","Bike",57,0.5,0.5,"ME","Northeast","city",-70.2311655,44.0978509
"60","Auburn","New York","Small","Bike",54,0.4,0.4,"NY","Northeast","city",-76.5660529,42.9317335
"61","Auburn","Washington","Small","Bike",97,0.3,0.2,"WA","West","city",-122.2284532,47.3073228
"62","Auburn Hills","Michigan","Small","Bike",43,0.4,0.4,"MI","North Central","city",-83.2341028,42.6875323
"63","Austin","Minnesota","Small","Bike",100,0.9,0.7,"MN","North Central","city",-92.9746367,43.6666296
"64","Aventura","Florida","Small","Bike",0,0,0.3,"FL","South","city",-80.1392121,25.9564812
"65","Avon","Ohio","Small","Bike",14,0.2,0.2,"OH","North Central","city",-82.0354225,41.4517093
"66","Avon Lake","Ohio","Small","Bike",78,0.7,0.7,"OH","North Central","city",-82.0282001,41.5053178
"67","Avondale","Arizona","Small","Bike",42,0.1,0.1,"AZ","West","city",-112.3496021,33.4355977
"68","Azusa","California","Small","Bike",154,0.7,0.4,"CA","West","city",-117.9075627,34.1336186
"69","Bainbridge Island","Washington","Small","Bike",194,1.9,0.9,"WA","West","city",-122.5210007,47.6248791
"70","Balch Springs","Texas","Small","Bike",0,0,0.4,"TX","South","city",-96.6227714,32.7287413
"71","Baldwin Park","California","Small","Bike",294,1,0.5,"CA","West","city",-117.9608978,34.0852868
"72","Ballwin","Missouri","Small","Bike",0,0,0.2,"MO","North Central","city",-90.5462339,38.5950532
"73","Bangor","Maine","Small","Bike",50,0.3,0.3,"ME","Northeast","city",-68.7712257,44.8016128
"74","Banning","California","Small","Bike",47,0.5,0.5,"CA","West","city",-116.8764103,33.9255713
"75","Barberton","Ohio","Small","Bike",8,0.1,0.1,"OH","North Central","city",-81.6051221,41.012833
"76","Barnstable Town","Massachusetts","Small","Bike",49,0.2,0.2,"MA","Northeast","city",-70.3002024,41.7003208
"77","Barstow","California","Small","Bike",29,0.3,0.5,"CA","West","city",-117.0172826,34.8957957
"78","Bartlesville","Oklahoma","Small","Bike",115,0.7,0.5,"OK","South","city",-95.9808179,36.7473114
"79","Bartlett","Tennessee","Small","Bike",36,0.1,0.2,"TN","South","city",-89.8739753,35.2045328
"80","Bartlett","Illinois","Small","Bike",28,0.1,0.1,"IL","North Central","village",-88.1856301,41.9950276
"81","Batavia","Illinois","Small","Bike",47,0.4,0.4,"IL","North Central","city",-88.3125738,41.8500284
"82","Battle Creek","Michigan","Small","Bike",61,0.3,0.2,"MI","North Central","city",-85.1797142,42.3211522
"83","Bay City","Michigan","Small","Bike",158,1.1,0.6,"MI","North Central","city",-83.8888647,43.5944677
"84","Bayonne","New Jersey","Small","Bike",71,0.2,0.2,"NJ","Northeast","city",-74.1143091,40.6687141
"85","Baytown","Texas","Small","Bike",83,0.3,0.3,"TX","South","city",-94.9774274,29.7355047
"86","Beaumont","California","Small","Bike",36,0.2,0.2,"CA","West","city",-116.977248,33.9294606
"87","Beavercreek","Ohio","Small","Bike",116,0.5,0.3,"OH","North Central","city",-84.0632685,39.7092262
"88","Beaverton","Oregon","Small","Bike",564,1.3,0.4,"OR","West","city",-122.8013771,45.4888761
"89","Bedford","Texas","Small","Bike",54,0.2,0.1,"TX","South","city",-97.1430671,32.844017
"90","Bell","California","Small","Bike",234,1.8,0.9,"CA","West","city",-118.1870156,33.9775142
"91","Bell Gardens","California","Small","Bike",173,1.1,0.5,"CA","West","city",-118.1514588,33.9652918
"92","Bella Vista","Arkansas","Small","Bike",0,0,0.3,"AR","South","town",-94.2732642,36.481464
"93","Belleville","Illinois","Small","Bike",100,0.5,0.3,"IL","North Central","city",-89.9839935,38.5200504
"94","Bellevue","Nebraska","Small","Bike",31,0.1,0.1,"NE","North Central","city",-95.9145568,41.1543623
"95","Bellflower","California","Small","Bike",177,0.6,0.3,"CA","West","city",-118.1170117,33.8816818
"96","Bellingham","Washington","Small","Bike",1578,4,1,"WA","West","city",-122.4786854,48.7519112
"97","Belmont","California","Small","Bike",42,0.3,0.3,"CA","West","city",-122.2758008,37.5202145
"98","Beloit","Wisconsin","Small","Bike",86,0.6,0.4,"WI","North Central","city",-89.0317765,42.5083482
"99","Belton","Missouri","Small","Bike",32,0.3,0.3,"MO","North Central","city",-94.5318982,38.8119527
"100","Belvidere","Illinois","Small","Bike",40,0.4,0.6,"IL","North Central","city",-88.8442674,42.2639098
"101","Benbrook","Texas","Small","Bike",42,0.4,0.4,"TX","South","city",-97.4605759,32.673188
"102","Bend","Oregon","Small","Bike",844,2.3,0.7,"OR","West","city",-121.3153096,44.0581728
"103","Benicia","California","Small","Bike",90,0.7,0.6,"CA","West","city",-122.1585777,38.049365
"104","Benton","Arkansas","Small","Bike",0,0,0.2,"AR","South","city",-92.586828,34.5645371
"105","Bentonville","Arkansas","Small","Bike",24,0.1,0.2,"AR","South","city",-94.2088172,36.3728538
"106","Bergenfield","New Jersey","Small","Bike",39,0.3,0.2,"NJ","Northeast","borough",-73.9973608,40.9275987
"107","Berwyn","Illinois","Small","Bike",45,0.2,0.2,"IL","North Central","city",-87.7936685,41.8505874
"108","Bessemer","Alabama","Small","Bike",0,0,0.3,"AL","South","city",-86.954437,33.4017766
"109","Bethel Park","Pennsylvania","Small","Bike",7,0,0.1,"PA","Northeast","municipality",-80.0394977,40.3275697
"110","Bethlehem","Pennsylvania","Small","Bike",84,0.3,0.1,"PA","Northeast","city",-75.3704579,40.6259316
"111","Bettendorf","Iowa","Small","Bike",34,0.2,0.2,"IA","North Central","city",-90.5072573,41.5262641
"112","Beverly","Massachusetts","Small","Bike",57,0.3,0.2,"MA","Northeast","city",-70.880049,42.5584283
"113","Beverly Hills","California","Small","Bike",87,0.5,0.5,"CA","West","city",-118.4003563,34.0736204
"114","Biddeford","Maine","Small","Bike",88,0.8,0.6,"ME","Northeast","city",-70.4533844,43.4925843
"115","Big Spring","Texas","Small","Bike",33,0.4,0.4,"TX","South","city",-101.4787355,32.2503979
"116","Biloxi","Mississippi","Small","Bike",88,0.4,0.3,"MS","South","city",-88.8853078,30.3960318
"117","Binghamton","New York","Small","Bike",208,1.1,0.6,"NY","Northeast","city",-75.9179738,42.0986867
"118","Birmingham","Michigan","Small","Bike",21,0.2,0.3,"MI","North Central","city",-83.2113192,42.5467012
"119","Bismarck","North Dakota","Small","Bike",271,0.8,0.3,"ND","North Central","city",-100.7837392,46.8083268
"120","Bixby","Oklahoma","Small","Bike",22,0.2,0.3,"OK","South","city",-95.8833235,35.9420431
"121","Blacksburg","Virginia","Small","Bike",531,3.1,1,"VA","South","town",-80.4139393,37.2295733
"122","Blaine","Minnesota","Small","Bike",30,0.1,0.1,"MN","North Central","city",-93.2349489,45.1607987
"123","Bloomingdale","Illinois","Small","Bike",0,0,0.3,"IL","North Central","village",-88.0809036,41.9575285
"124","Bloomington","Illinois","Small","Bike",205,0.5,0.2,"IL","North Central","city",-88.9936873,40.4842027
"125","Bloomington","Indiana","Small","Bike",1260,3.6,0.7,"IN","North Central","city",-86.5263857,39.165325
"126","Bloomington","Minnesota","Small","Bike",239,0.6,0.2,"MN","North Central","city",-93.2982799,44.840798
"127","Blue Island","Illinois","Small","Bike",12,0.1,0.2,"IL","North Central","city",-87.6800486,41.6572562
"128","Blue Springs","Missouri","Small","Bike",52,0.2,0.3,"MO","North Central","city",-94.2816148,39.0169509
"129","Blythe","California","Small","Bike",12,0.2,0.3,"CA","West","city",-114.5882607,33.6177725
"130","Boca Raton","Florida","Small","Bike",438,1.1,0.5,"FL","South","city",-80.1289321,26.3683064
"131","Bolingbrook","Illinois","Small","Bike",27,0.1,0.1,"IL","North Central","village",-88.0683955,41.6986416
"132","Bonita Springs","Florida","Small","Bike",150,0.9,0.6,"FL","South","city",-81.7786972,26.339806
"133","Bossier City","Louisiana","Small","Bike",101,0.3,0.2,"LA","South","city",-93.7321228,32.5159852
"134","Bothell","Washington","Small","Bike",204,1.2,0.7,"WA","West","city",-122.2054452,47.760111
"135","Bountiful","Utah","Small","Bike",44,0.2,0.2,"UT","West","city",-111.880771,40.8893895
"136","Bowie","Maryland","Small","Bike",25,0.1,0.1,"MD","South","city",-76.7791365,39.0067768
"137","Bowling Green","Kentucky","Small","Bike",127,0.5,0.3,"KY","South","city",-86.4808043,36.9685219
"138","Bowling Green","Ohio","Small","Bike",226,1.5,0.7,"OH","North Central","city",-83.6513229,41.3747744
"139","Boynton Beach","Florida","Small","Bike",187,0.6,0.3,"FL","South","city",-80.0905465,26.5317866
"140","Bozeman","Montana","Small","Bike",1185,5.8,1.2,"MT","West","city",-111.0429339,45.6769979
"141","Bradenton","Florida","Small","Bike",151,0.7,0.5,"FL","South","city",-82.5748194,27.4989278
"142","Braintree Town","Massachusetts","Small","Bike",29,0.2,0.2,"MA","Northeast","city",-71.0040013,42.2079017
"143","Brandon","Mississippi","Small","Bike",10,0.1,0.1,"MS","South","city",-90.001384,32.2788733
"144","Brawley","California","Small","Bike",22,0.3,0.4,"CA","West","city",-115.530267,32.9786566
"145","Brea","California","Small","Bike",73,0.4,0.3,"CA","West","city",-117.9002918,33.916475
"146","Bremerton","Washington","Small","Bike",221,1.2,0.6,"WA","West","city",-122.6269768,47.5650067
"147","Brentwood","California","Small","Bike",11,0.1,0.1,"CA","West","city",-121.6957863,37.931868
"148","Brentwood","Tennessee","Small","Bike",10,0.1,0.1,"TN","South","city",-86.7827772,36.0331164
"149","Bridgeton","New Jersey","Small","Bike",3,0,0.1,"NJ","Northeast","city",-75.2340768,39.427337
"150","Brighton","Colorado","Small","Bike",34,0.2,0.2,"CO","West","city",-104.8205283,39.9852617
"151","Bristol","Connecticut","Small","Bike",36,0.1,0.1,"CT","Northeast","city",-72.9492703,41.6717648
"152","Bristol","Tennessee","Small","Bike",15,0.1,0.2,"TN","South","city",-82.1887444,36.5951059
"153","Brockton","Massachusetts","Small","Bike",98,0.2,0.2,"MA","Northeast","city",-71.0183787,42.0834335
"154","Brookfield","Wisconsin","Small","Bike",33,0.2,0.2,"WI","North Central","city",-88.1064787,43.0605671
"155","Brookings","South Dakota","Small","Bike",454,3.7,1.7,"SD","North Central","city",-96.7983877,44.3113573
"156","Brooklyn Center","Minnesota","Small","Bike",147,1.1,0.7,"MN","North Central","city",-93.3327283,45.076076
"157","Brooklyn Park","Minnesota","Small","Bike",53,0.1,0.1,"MN","North Central","city",-93.3563405,45.0941315
"158","Broomfield","Colorado","Small","Bike",218,0.7,0.4,"CO","West","city",-105.0866504,39.9205411
"159","Brownsburg","Indiana","Small","Bike",0,0,0.3,"IN","North Central","town",-86.3977735,39.8433769
"160","Brunswick","Ohio","Small","Bike",12,0.1,0.1,"OH","North Central","city",-81.8418006,41.2381096
"161","Bryan","Texas","Small","Bike",454,1.3,0.6,"TX","South","city",-96.3699632,30.6743643
"162","Buckeye","Arizona","Small","Bike",27,0.1,0.2,"AZ","West","town",-112.5837766,33.3703197
"163","Buena Park","California","Small","Bike",453,1.3,0.7,"CA","West","city",-117.9981387,33.8674044
"164","Buffalo Grove","Illinois","Small","Bike",114,0.5,0.3,"IL","North Central","village",-87.9631308,42.1662831
"165","Bullhead City","Arizona","Small","Bike",0,0,0.3,"AZ","West","city",-114.5285981,35.1359386
"166","Burbank","Illinois","Small","Bike",59,0.5,0.4,"IL","North Central","city",-87.760738,41.7467619
"167","Burien","Washington","Small","Bike",51,0.3,0.2,"WA","West","city",-122.3405305,47.4668384
"168","Burleson","Texas","Small","Bike",73,0.4,0.4,"TX","South","city",-97.3208492,32.5420821
"169","Burlingame","California","Small","Bike",126,0.9,0.6,"CA","West","city",-122.34809,37.5778696
"170","Burlington","Iowa","Small","Bike",98,0.9,0.9,"IA","North Central","city",-91.1128901,40.8076529
"171","Burlington","North Carolina","Small","Bike",0,0,0.2,"NC","South","city",-79.4377991,36.0956918
"172","Burlington","Vermont","Small","Bike",1101,5,1.2,"VT","Northeast","city",-73.212072,44.4758825
"173","Burnsville","Minnesota","Small","Bike",127,0.4,0.3,"MN","North Central","city",-93.2777226,44.7677424
"174","Burton","Michigan","Small","Bike",14,0.1,0.2,"MI","North Central","city",-83.6163423,42.9994718
"175","Butte-Silver Bow ()","Montana","Small","Bike",42,0.3,0.4,"MT","West","(balance)",-112.5347775,46.0038232
"176","Cabot","Arkansas","Small","Bike",0,0,0.3,"AR","South","city",-92.0165336,34.974532
"177","Calabasas","California","Small","Bike",0,0,0.4,"CA","West","city",-118.6614809,34.1367208
"178","Caldwell","Idaho","Small","Bike",52,0.3,0.3,"ID","West","city",-116.6873596,43.6629384
"179","Caledonia","Wisconsin","Small","Bike",26,0.2,0.2,"WI","North Central","village",-87.924248,42.8077958
"180","Calexico","California","Small","Bike",60,0.5,0.6,"CA","West","city",-115.4988834,32.6789476
"181","Calumet City","Illinois","Small","Bike",74,0.5,0.6,"IL","North Central","city",-87.5294871,41.6155909
"182","Camarillo","California","Small","Bike",156,0.5,0.3,"CA","West","city",-119.0376023,34.2163937
"183","Camas","Washington","Small","Bike",64,0.8,0.5,"WA","West","city",-122.402442,45.5867128
"184","Camden","New Jersey","Small","Bike",84,0.4,0.4,"NJ","Northeast","city",-75.1196199,39.9259463
"185","Campbell","California","Small","Bike",432,2,1,"CA","West","city",-121.9499568,37.2871651
"186","Canton","Georgia","Small","Bike",0,0,0.4,"GA","South","city",-84.4907621,34.2367621
"187","Canton","Ohio","Small","Bike",58,0.2,0.1,"OH","North Central","city",-81.378447,40.7989473
"188","Cape Girardeau","Missouri","Small","Bike",128,0.7,0.8,"MO","North Central","city",-89.5181476,37.3058839
"189","Carbondale","Illinois","Small","Bike",381,3.6,1.2,"IL","North Central","city",-89.2167501,37.7272727
"190","Carlsbad","New Mexico","Small","Bike",0,0,0.3,"NM","West","city",-104.2288375,32.4206736
"191","Carmel","Indiana","Small","Bike",137,0.3,0.2,"IN","North Central","city",-86.1180435,39.978371
"192","Carol Stream","Illinois","Small","Bike",66,0.3,0.4,"IL","North Central","village",-88.1347927,41.9125286
"193","Carpentersville","Illinois","Small","Bike",7,0,0.1,"IL","North Central","village",-88.2578582,42.1211364
"194","Carrboro","North Carolina","Small","Bike",605,5.3,2.1,"NC","South","town",-79.0752895,35.9101438
"195","Carrollton","Georgia","Small","Bike",43,0.5,0.4,"GA","South","city",-85.0766113,33.5801103
"196","Carson","California","Small","Bike",85,0.2,0.2,"CA","West","city",-118.281693,33.8316745
"197","Carson City","Nevada","Small","Bike",261,1.1,0.6,"NV","West","city",-119.7674034,39.1637984
"198","Carteret","New Jersey","Small","Bike",61,0.6,0.6,"NJ","Northeast","borough",-74.2282005,40.5773266
"199","Casa Grande","Arizona","Small","Bike",48,0.3,0.2,"AZ","West","city",-111.7733902,32.9110027
"200","Casper","Wyoming","Small","Bike",195,0.7,0.3,"WY","West","city",-106.3251749,42.8500769
"201","Casselberry","Florida","Small","Bike",72,0.6,0.5,"FL","South","city",-81.3278455,28.677775
"202","Castle Rock","Colorado","Small","Bike",18,0.1,0.1,"CO","West","town",-104.8560902,39.3722121
"203","Cathedral City","California","Small","Bike",50,0.2,0.2,"CA","West","city",-116.4668036,33.7805388
"204","Cedar City","Utah","Small","Bike",117,1,0.5,"UT","West","city",-113.0618931,37.6774769
"205","Cedar Falls","Iowa","Small","Bike",146,0.7,0.4,"IA","North Central","city",-92.4453161,42.5348993
"206","Cedar Hill","Texas","Small","Bike",19,0.1,0.1,"TX","South","city",-96.9561152,32.5884689
"207","Cedar Park","Texas","Small","Bike",42,0.2,0.2,"TX","South","city",-97.8202888,30.505198
"208","Centerville","Ohio","Small","Bike",3,0,4.1,"OH","North Central","city",-84.1593818,39.6283928
"209","Central","Louisiana","Small","Bike",0,0,0.3,"LA","South","city",-91.0368766,30.554281
"210","Ceres","California","Small","Bike",78,0.5,0.6,"CA","West","city",-120.9577098,37.5949316
"211","Cerritos","California","Small","Bike",35,0.2,0.2,"CA","West","city",-118.0647871,33.8583483
"212","Chambersburg","Pennsylvania","Small","Bike",28,0.3,0.4,"PA","Northeast","borough",-77.6611022,39.9375911
"213","Champaign","Illinois","Small","Bike",1075,2.7,0.6,"IL","North Central","city",-88.2433829,40.1164204
"214","Champlin","Minnesota","Small","Bike",52,0.4,0.3,"MN","North Central","city",-93.3974537,45.1888539
"215","Chanhassen","Minnesota","Small","Bike",35,0.3,0.4,"MN","North Central","city",-93.5323103,44.8619645
"216","Chapel Hill","North Carolina","Small","Bike",583,2.2,0.5,"NC","South","town",-79.0558445,35.9131996
"217","Charleston","Illinois","Small","Bike",110,1.1,0.7,"IL","North Central","city",-88.1761521,39.4961458
"218","Charleston","West Virginia","Small","Bike",49,0.2,0.1,"WV","South","city",-81.6326234,38.3498195
"219","Charlottesville","Virginia","Small","Bike",753,3.7,0.9,"VA","South","city",-78.4766781,38.0293059
"220","Chaska","Minnesota","Small","Bike",24,0.2,0.2,"MN","North Central","city",-93.6018389,44.7893446
"221","Chelsea","Massachusetts","Small","Bike",136,0.8,0.6,"MA","Northeast","city",-71.0328284,42.3917638
"222","Chester","Pennsylvania","Small","Bike",104,0.9,0.8,"PA","Northeast","city",-75.3557457,39.849557
"223","Chesterfield","Missouri","Small","Bike",14,0.1,0.1,"MO","North Central","city",-90.5770675,38.6631083
"224","Cheyenne","Wyoming","Small","Bike",207,0.7,0.3,"WY","West","city",-104.8202462,41.1399814
"225","Chicago Heights","Illinois","Small","Bike",99,0.9,0.8,"IL","North Central","city",-87.6355995,41.506146
"226","Chico","California","Small","Bike",2239,5.8,1,"CA","West","city",-121.8374777,39.7284944
"227","Chicopee","Massachusetts","Small","Bike",129,0.5,0.6,"MA","Northeast","city",-72.6078672,42.1487043
"228","Chillicothe","Ohio","Small","Bike",14,0.2,0.2,"OH","North Central","city",-82.9824019,39.3331197
"229","Chino","California","Small","Bike",97,0.3,0.2,"CA","West","city",-117.688944,34.0122346
"230","Chino Hills","California","Small","Bike",206,0.6,0.7,"CA","West","city",-117.7325848,33.9898188
"231","Christiansburg","Virginia","Small","Bike",0,0,0.3,"VA","South","town",-80.4089389,37.1298517
"232","Cicero","Illinois","Small","Bike",312,0.9,0.5,"IL","North Central","town",-87.7539448,41.8455877
"233","Citrus Heights","California","Small","Bike",137,0.4,0.2,"CA","West","city",-121.2810611,38.7071247
"234","Claremont","California","Small","Bike",296,2,0.7,"CA","West","city",-117.7197785,34.0966764
"235","Clarksville","Indiana","Small","Bike",27,0.3,0.3,"IN","North Central","town",-85.759963,38.2967362
"236","Clearfield","Utah","Small","Bike",39,0.3,0.3,"UT","West","city",-112.0260538,41.1107771
"237","Cleburne","Texas","Small","Bike",0,0,0.3,"TX","South","city",-97.3866837,32.3476438
"238","Clermont","Florida","Small","Bike",18,0.2,0.2,"FL","South","city",-81.7728543,28.5494447
"239","Cleveland","Tennessee","Small","Bike",51,0.3,0.3,"TN","South","city",-84.8766115,35.1595182
"240","Cleveland Heights","Ohio","Small","Bike",197,0.9,0.3,"OH","North Central","city",-81.556235,41.5200518
"241","Cliffside Park","New Jersey","Small","Bike",39,0.3,0.3,"NJ","Northeast","borough",-73.9876388,40.8214894
"242","Clifton","New Jersey","Small","Bike",59,0.1,0.2,"NJ","Northeast","city",-74.1637553,40.8584328
"243","Clinton","Iowa","Small","Bike",58,0.5,0.4,"IA","North Central","city",-90.1887379,41.8444735
"244","Clinton","Mississippi","Small","Bike",0,0,0.3,"MS","South","city",-90.3217585,32.3415342
"245","Clinton","Utah","Small","Bike",13,0.1,0.2,"UT","West","city",-112.0504983,41.139666
"246","Clovis","California","Small","Bike",156,0.4,0.2,"CA","West","city",-119.7029194,36.8252277
"247","Clovis","New Mexico","Small","Bike",58,0.4,0.3,"NM","West","city",-103.2052272,34.4047987
"248","Coachella","California","Small","Bike",15,0.1,0.2,"CA","West","city",-116.173894,33.6803003
"249","Coconut Creek","Florida","Small","Bike",110,0.4,0.3,"FL","South","city",-80.1789351,26.2517482
"250","Coeur d'Alene","Idaho","Small","Bike",191,0.9,0.5,"ID","West","city",-116.7812225,47.6734632
"251","College Park","Maryland","Small","Bike",433,3.3,1.2,"MD","South","city",-76.93776,38.9896967
"252","College Station","Texas","Small","Bike",1126,2.6,0.5,"TX","South","city",-96.3344068,30.627977
"253","Colleyville","Texas","Small","Bike",25,0.2,0.3,"TX","South","city",-97.155012,32.8809603
"254","Collierville","Tennessee","Small","Bike",5,0,0.1,"TN","South","town",-89.6645266,35.042036
"255","Collinsville","Illinois","Small","Bike",31,0.3,0.3,"IL","North Central","city",-89.9845476,38.6703266
"256","Colton","California","Small","Bike",133,0.6,0.6,"CA","West","city",-117.3136547,34.0739016
"257","Columbia","Tennessee","Small","Bike",54,0.4,0.5,"TN","South","city",-87.0352831,35.6150716
"258","Columbus","Indiana","Small","Bike",99,0.5,0.2,"IN","North Central","city",-85.9213796,39.2014404
"259","Columbus","Mississippi","Small","Bike",5,0.1,0.1,"MS","South","city",-88.4272627,33.4956744
"260","Columbus","Nebraska","Small","Bike",52,0.5,0.5,"NE","North Central","city",-97.3593904,41.4302973
"261","Commerce City","Colorado","Small","Bike",10,0,0.1,"CO","West","city",-104.9338675,39.8083196
"262","Compton","California","Small","Bike",154,0.5,0.2,"CA","West","city",-118.2200712,33.8958492
"263","Concord","New Hampshire","Small","Bike",93,0.4,0.3,"NH","Northeast","city",-71.5375718,43.2081366
"264","Concord","North Carolina","Small","Bike",34,0.1,0.1,"NC","South","city",-80.579511,35.4087517
"265","Conroe","Texas","Small","Bike",126,0.5,0.5,"TX","South","city",-95.4560512,30.3118769
"266","Conway","Arkansas","Small","Bike",104,0.4,0.2,"AR","South","city",-92.4421011,35.0886963
"267","Cookeville","Tennessee","Small","Bike",34,0.3,0.3,"TN","South","city",-85.5016423,36.162839
"268","Coon Rapids","Minnesota","Small","Bike",101,0.3,0.2,"MN","North Central","city",-93.3030063,45.1732394
"269","Cooper City","Florida","Small","Bike",16,0.1,0.1,"FL","South","city",-80.271716,26.0573112
"270","Coppell","Texas","Small","Bike",9,0,0.1,"TX","South","city",-97.0150078,32.9545687
"271","Copperas Cove","Texas","Small","Bike",25,0.2,0.2,"TX","South","city",-97.9030785,31.124062
"272","Coral Gables","Florida","Small","Bike",144,0.7,0.5,"FL","South","city",-80.2635411,25.7491968
"273","Corcoran","California","Small","Bike",52,1.3,1.1,"CA","West","city",-119.5604015,36.098007
"274","Corinth","Texas","Small","Bike",23,0.2,0.4,"TX","South","city",-97.0647322,33.1540091
"275","Cornelius","North Carolina","Small","Bike",7,0.1,0.1,"NC","South","town",-80.8600736,35.4868032
"276","Coronado","California","Small","Bike",527,4.8,1.3,"CA","West","city",-117.1830891,32.6858853
"277","Corsicana","Texas","Small","Bike",31,0.3,0.4,"TX","South","city",-96.4688727,32.0954304
"278","Corvallis","Oregon","Small","Bike",2804,11.2,1.5,"OR","West","city",-123.2620435,44.5645659
"279","Cottage Grove","Minnesota","Small","Bike",64,0.4,0.3,"MN","North Central","city",-92.9438218,44.8277446
"280","Cottonwood Heights","Utah","Small","Bike",49,0.3,0.2,"UT","West","city",-111.8162931,40.6183158
"281","Council Bluffs","Iowa","Small","Bike",132,0.4,0.2,"IA","North Central","city",-95.8608333,41.2619444
"282","Covina","California","Small","Bike",134,0.6,0.4,"CA","West","city",-117.8903397,34.0900091
"283","Covington","Kentucky","Small","Bike",50,0.3,0.3,"KY","South","city",-84.5085536,39.0836712
"284","Cranston","Rhode Island","Small","Bike",92,0.3,0.2,"RI","Northeast","city",-71.4372796,41.7798226
"285","Crest Hill","Illinois","Small","Bike",0,0,0.3,"IL","North Central","city",-88.0986709,41.554753
"286","Crestview","Florida","Small","Bike",11,0.1,0.2,"FL","South","city",-86.5727995,30.7541808
"287","Crown Point","Indiana","Small","Bike",0,0,0.2,"IN","North Central","city",-87.3653135,41.4169806
"288","Crystal","Minnesota","Small","Bike",9,0.1,0.1,"MN","North Central","city",-93.3602286,45.0327425
"289","Crystal Lake","Illinois","Small","Bike",0,0,0.1,"IL","North Central","city",-88.3161965,42.2411344
"290","Cudahy","California","Small","Bike",74,0.8,0.8,"CA","West","city",-118.1857858,33.9608646
"291","Culver City","California","Small","Bike",219,1.1,0.5,"CA","West","city",-118.3964665,34.0211224
"292","Cumberland","Maryland","Small","Bike",0,0,0.4,"MD","South","city",-78.7625185,39.6528654
"293","Cupertino","California","Small","Bike",221,0.9,0.5,"CA","West","city",-122.0321823,37.3229978
"294","Cutler Bay","Florida","Small","Bike",28,0.2,0.2,"FL","South","town",-80.3468593,25.5808323
"295","Cuyahoga Falls","Ohio","Small","Bike",56,0.2,0.3,"OH","North Central","city",-81.4845585,41.1339449
"296","Cypress","California","Small","Bike",168,0.7,0.4,"CA","West","city",-118.0368507,33.8169366
"297","Dalton","Georgia","Small","Bike",29,0.2,0.3,"GA","South","city",-84.9702228,34.7698021
"298","Dana Point","California","Small","Bike",75,0.4,0.3,"CA","West","city",-117.6981014,33.4672256
"299","Danbury","Connecticut","Small","Bike",51,0.1,0.1,"CT","Northeast","city",-73.4540111,41.394817
"300","Dania Beach","Florida","Small","Bike",102,0.7,0.5,"FL","South","city",-80.1439343,26.052311
"301","Danville","Illinois","Small","Bike",28,0.2,0.2,"IL","North Central","city",-87.6300207,40.124481
"302","Danville","Virginia","Small","Bike",33,0.2,0.1,"VA","South","city",-79.3950228,36.5859718
"303","Danville","California","Small","Bike",29,0.2,0.2,"CA","West","town",-121.9999606,37.8215929
"304","Daphne","Alabama","Small","Bike",91,0.9,1.3,"AL","South","city",-87.9036047,30.6035255
"305","Darien","Illinois","Small","Bike",30,0.3,0.3,"IL","North Central","city",-87.9737943,41.7483483
"306","Davie","Florida","Small","Bike",216,0.5,0.3,"FL","South","town",-80.2521157,26.0764783
"307","Davis","California","Small","Bike",5691,18.6,1.8,"CA","West","city",-121.7405167,38.5449065
"308","Daytona Beach","Florida","Small","Bike",429,1.9,0.7,"FL","South","city",-81.0228331,29.2108147
"309","De Pere","Wisconsin","Small","Bike",75,0.6,0.4,"WI","North Central","city",-88.0603806,44.4488805
"310","Dearborn","Michigan","Small","Bike",110,0.3,0.1,"MI","North Central","city",-83.1763145,42.3222599
"311","Dearborn Heights","Michigan","Small","Bike",32,0.2,0.2,"MI","North Central","city",-83.2732627,42.3369816
"312","Decatur","Alabama","Small","Bike",0,0,0.1,"AL","South","city",-86.9833417,34.6059253
"313","Decatur","Illinois","Small","Bike",54,0.2,0.1,"IL","North Central","city",-88.9548001,39.8403147
"314","Deer Park","Texas","Small","Bike",65,0.4,0.5,"TX","South","city",-95.1238204,29.7052284
"315","Deerfield Beach","Florida","Small","Bike",306,0.9,0.4,"FL","South","city",-80.0997657,26.3184123
"316","DeKalb","Illinois","Small","Bike",301,1.5,0.6,"IL","North Central","city",-88.7503647,41.9294736
"317","Del City","Oklahoma","Small","Bike",0,0,0.3,"OK","South","city",-97.4408698,35.4420062
"318","Del Rio","Texas","Small","Bike",125,0.9,0.5,"TX","South","city",-100.8958674,29.3708857
"319","DeLand","Florida","Small","Bike",159,1.6,1.2,"FL","South","city",-81.3031179,29.028318
"320","Delano","California","Small","Bike",41,0.3,0.4,"CA","West","city",-119.2470536,35.7688425
"321","Delaware","Ohio","Small","Bike",46,0.3,0.2,"OH","North Central","city",-83.067965,40.2986724
"322","Delray Beach","Florida","Small","Bike",188,0.7,0.4,"FL","South","city",-80.0728201,26.4614625
"323","Deltona","Florida","Small","Bike",58,0.2,0.2,"FL","South","city",-81.2636738,28.9005446
"324","Denison","Texas","Small","Bike",34,0.4,0.4,"TX","South","city",-96.536658,33.7556593
"325","Derby","Kansas","Small","Bike",9,0.1,0.1,"KS","North Central","city",-97.2689331,37.5455735
"326","Des Moines","Washington","Small","Bike",24,0.2,0.3,"WA","West","city",-122.3242901,47.4017661
"327","Des Plaines","Illinois","Small","Bike",167,0.6,0.3,"IL","North Central","city",-87.8833991,42.0333623
"328","Desert Hot Springs","California","Small","Bike",0,0,0.4,"CA","West","city",-116.5016784,33.961124
"329","DeSoto","Texas","Small","Bike",0,0,0.2,"TX","South","city",-96.8570738,32.5896998
"330","Diamond Bar","California","Small","Bike",7,0,0.1,"CA","West","city",-117.8103367,34.0286226
"331","Dinuba","California","Small","Bike",14,0.2,0.3,"CA","West","city",-119.3870656,36.5432837
"332","Dodge City","Kansas","Small","Bike",42,0.3,0.3,"KS","North Central","city",-100.0170787,37.7527982
"333","Dolton","Illinois","Small","Bike",0,0,0.3,"IL","North Central","village",-87.607268,41.6389236
"334","Doral","Florida","Small","Bike",5,0,0.1,"FL","South","city",-80.3553302,25.8195424
"335","Dothan","Alabama","Small","Bike",51,0.2,0.1,"AL","South","city",-85.3904888,31.2232313
"336","Douglasville","Georgia","Small","Bike",1,0,0.1,"GA","South","city",-84.7477136,33.7514966
"337","Dover","Delaware","Small","Bike",12,0.1,0.1,"DE","South","city",-75.5243682,39.158168
"338","Dover","New Hampshire","Small","Bike",43,0.3,0.3,"NH","Northeast","city",-70.8736698,43.1978624
"339","Downers Grove","Illinois","Small","Bike",176,0.7,0.4,"IL","North Central","village",-88.0111746,41.8089191
"340","Draper","Utah","Small","Bike",35,0.2,0.2,"UT","West","city",-111.8638226,40.5246711
"341","Duarte","California","Small","Bike",14,0.2,0.2,"CA","West","city",-117.9772873,34.1394513
"342","Dublin","California","Small","Bike",69,0.3,0.2,"CA","West","city",-121.9101221,37.7159396
"343","Dublin","Ohio","Small","Bike",16,0.1,0.1,"OH","North Central","city",-83.1140771,40.0992294
"344","Dubuque","Iowa","Small","Bike",43,0.1,0.1,"IA","North Central","city",-90.6654675,42.5022661
"345","Duluth","Georgia","Small","Bike",0,0,0.3,"GA","South","city",-84.1446376,34.0028786
"346","Duluth","Minnesota","Small","Bike",343,0.8,0.3,"MN","North Central","city",-92.1004852,46.7866719
"347","Duncan","Oklahoma","Small","Bike",18,0.2,0.3,"OK","South","city",-97.9578128,34.5023028
"348","Duncanville","Texas","Small","Bike",14,0.1,0.1,"TX","South","city",-96.9083366,32.6518004
"349","Dunedin","Florida","Small","Bike",296,1.9,0.8,"FL","South","city",-82.7717684,28.0197404
"350","Dunwoody","Georgia","Small","Bike",32,0.1,0.2,"GA","South","city",-84.3346473,33.9462125
"351","Eagan","Minnesota","Small","Bike",128,0.4,0.2,"MN","North Central","city",-93.1668858,44.8041322
"352","Eagle","Idaho","Small","Bike",48,0.6,0.5,"ID","West","city",-116.3540138,43.6954424
"353","Eagle Mountain","Utah","Small","Bike",0,0,0.4,"UT","West","city",-112.006882,40.3141169
"354","Eagle Pass","Texas","Small","Bike",11,0.1,0.2,"TX","South","city",-100.4995214,28.7091433
"355","Easley","South Carolina","Small","Bike",11,0.1,0.2,"SC","South","city",-82.6015206,34.829838
"356","East Chicago","Indiana","Small","Bike",0,0,0.3,"IN","North Central","city",-87.4547635,41.6392024
"357","East Lansing","Michigan","Small","Bike",1374,6.8,1.2,"MI","North Central","city",-84.4838654,42.7369792
"358","East Moline","Illinois","Small","Bike",0,0,0.3,"IL","North Central","city",-90.4442979,41.5008673
"359","East Orange","New Jersey","Small","Bike",17,0.1,0.1,"NJ","Northeast","city",-74.2048677,40.767323
"360","East Palo Alto","California","Small","Bike",440,3.6,3.6,"CA","West","city",-122.1410751,37.4688273
"361","East Peoria","Illinois","Small","Bike",0,0,0.3,"IL","North Central","city",-89.5800978,40.666149
"362","East Point","Georgia","Small","Bike",45,0.3,0.4,"GA","South","city",-84.4393724,33.6795531
"363","East Providence","Rhode Island","Small","Bike",78,0.4,0.3,"RI","Northeast","city",-71.3700545,41.8137116
"364","East Ridge","Tennessee","Small","Bike",3,0,0.1,"TN","South","city",-85.2256635,34.9947441
"365","East St. Louis","Illinois","Small","Bike",48,0.6,0.5,"IL","North Central","city",-90.1506465,38.624514
"366","Easton","Pennsylvania","Small","Bike",25,0.2,0.2,"PA","Northeast","city",-75.2207323,40.688432
"367","Eastpointe","Michigan","Small","Bike",0,0,0.2,"MI","North Central","city",-82.9554746,42.4683698
"368","Eastvale","California","Small","Bike",45,0.2,0.3,"CA","West","city",-117.5848025,33.952463
"369","Eau Claire","Wisconsin","Small","Bike",389,1.1,0.3,"WI","North Central","city",-91.4984941,44.811349
"370","Eden Prairie","Minnesota","Small","Bike",117,0.4,0.4,"MN","North Central","city",-93.470786,44.8546856
"371","Edgewater","Florida","Small","Bike",82,0.9,0.9,"FL","South","city",-80.9022758,28.9888754
"372","Edina","Minnesota","Small","Bike",220,1,0.5,"MN","North Central","city",-93.3499489,44.8896866
"373","Edinburg","Texas","Small","Bike",90,0.3,0.2,"TX","South","city",-98.1633432,26.3017374
"374","Edmond","Oklahoma","Small","Bike",106,0.3,0.1,"OK","South","city",-97.4780954,35.6528323
"375","Edmonds","Washington","Small","Bike",54,0.3,0.2,"WA","West","city",-122.3773551,47.8106521
"376","Edwardsville","Illinois","Small","Bike",54,0.4,0.4,"IL","North Central","city",-89.953157,38.8114364
"377","El Centro","California","Small","Bike",54,0.4,0.4,"CA","West","city",-115.5630514,32.792
"378","El Cerrito","California","Small","Bike",263,2.2,0.7,"CA","West","city",-122.310765,37.9161326
"379","El Mirage","Arizona","Small","Bike",23,0.2,0.2,"AZ","West","city",-112.3246042,33.6130942
"380","El Paso de Robles (Paso Robles)","Ca","Small","Bike",71,0.5,0.4,NA,NA,"city",-120.6545022,35.6368759
"381","Elizabethtown","Kentucky","Small","Bike",0,0,0.3,"KY","South","city",-85.8649408,37.7030646
"382","Elk Grove Village","Illinois","Small","Bike",22,0.1,0.2,"IL","North Central","village",-87.9703461,42.0039178
"383","Elk River","Minnesota","Small","Bike",26,0.2,0.2,"MN","North Central","city",-93.5691122,45.3377283
"384","Elkhart","Indiana","Small","Bike",262,1.3,0.6,"IN","North Central","city",-85.9766671,41.6819935
"385","Elmhurst","Illinois","Small","Bike",46,0.2,0.2,"IL","North Central","city",-87.9403418,41.8994744
"386","Elmira","New York","Small","Bike",56,0.5,0.3,"NY","Northeast","city",-76.8077338,42.0897965
"387","Elmwood Park","Illinois","Small","Bike",20,0.2,0.2,"IL","North Central","village",-87.8092266,41.9211423
"388","Elyria","Ohio","Small","Bike",104,0.4,0.3,"OH","North Central","city",-82.1076486,41.3683798
"389","Emporia","Kansas","Small","Bike",60,0.5,0.5,"KS","North Central","city",-96.1816626,38.403903
"390","Encinitas","California","Small","Bike",470,1.6,0.5,"CA","West","city",-117.2919818,33.0369867
"391","Englewood","Colorado","Small","Bike",210,1.3,0.7,"CO","West","city",-104.9877597,39.6477653
"392","Englewood","New Jersey","Small","Bike",35,0.3,0.3,"NJ","Northeast","city",-73.9726381,40.8928771
"393","Enid","Oklahoma","Small","Bike",28,0.1,0.1,"OK","South","city",-97.8783911,36.3955891
"394","Enterprise","Alabama","Small","Bike",13,0.1,0.1,"AL","South","city",-85.8552161,31.3151708
"395","Euclid","Ohio","Small","Bike",14,0.1,0.1,"OH","North Central","city",-81.5267873,41.5931049
"396","Euless","Texas","Small","Bike",83,0.3,0.3,"TX","South","city",-97.0819541,32.8370727
"397","Eureka","California","Small","Bike",232,1.9,1,"CA","West","city",-124.1636729,40.8020712
"398","Evanston","Illinois","Small","Bike",1073,3,0.5,"IL","North Central","city",-87.6876969,42.0450722
"399","Everett","Massachusetts","Small","Bike",162,0.7,0.5,"MA","Northeast","city",-71.0536625,42.40843
"400","Fair Lawn","New Jersey","Small","Bike",9,0.1,0.1,"NJ","Northeast","borough",-74.1318096,40.9403762
"401","Fairbanks","Alaska","Small","Bike",301,1.9,0.9,"AK","West","city",-147.7163888,64.8377778
"402","Fairborn","Ohio","Small","Bike",81,0.5,0.5,"OH","North Central","city",-84.0193789,39.8208925
"403","Fairfax","Virginia","Small","Bike",23,0.2,0.2,"VA","South","city",-77.3063733,38.8462236
"404","Fairfield","Ohio","Small","Bike",0,0,0.1,"OH","North Central","city",-84.5603187,39.3454673
"405","Fall River","Massachusetts","Small","Bike",90,0.3,0.2,"MA","Northeast","city",-71.1550451,41.7014912
"406","Faribault","Minnesota","Small","Bike",12,0.1,0.2,"MN","North Central","city",-93.268827,44.2949636
"407","Farmers Branch","Texas","Small","Bike",18,0.1,0.2,"TX","South","city",-96.8961151,32.9265137
"408","Farmington","Minnesota","Small","Bike",13,0.1,0.2,"MN","North Central","city",-93.1435497,44.6402434
"409","Farmington","New Mexico","Small","Bike",91,0.5,0.5,"NM","West","city",-108.2186856,36.7280583
"410","Farmington","Utah","Small","Bike",7,0.1,0.2,"UT","West","city",-111.8874392,40.9804999
"411","Farmington Hills","Michigan","Small","Bike",82,0.2,0.2,"MI","North Central","city",-83.3677168,42.4989936
"412","Farragut","Tennessee","Small","Bike",0,0,0.4,"TN","South","town",-84.1711345,35.8778548
"413","Fayetteville","Arkansas","Small","Bike",213,0.6,0.3,"AR","South","city",-94.1718542,36.082156
"414","Federal Way","Washington","Small","Bike",49,0.1,0.1,"WA","West","city",-122.3126222,47.3223221
"415","Ferguson","Missouri","Small","Bike",9,0.1,0.2,"MO","North Central","city",-90.3053915,38.7442175
"416","Ferndale","Michigan","Small","Bike",62,0.6,0.5,"MI","North Central","city",-83.1346478,42.4605917
"417","Findlay","Ohio","Small","Bike",155,0.8,0.5,"OH","North Central","city",-83.6499321,41.04422
"418","Fishers","Indiana","Small","Bike",49,0.1,0.1,"IN","North Central","town",-86.01335,39.9567548
"419","Fitchburg","Massachusetts","Small","Bike",11,0.1,0.1,"MA","Northeast","city",-71.8022955,42.5834228
"420","Fitchburg","Wisconsin","Small","Bike",119,0.9,0.6,"WI","North Central","city",-89.424092,43.0023146
"421","Flagstaff","Arizona","Small","Bike",1713,4.9,0.8,"AZ","West","city",-111.651302,35.1982836
"422","Florence","Alabama","Small","Bike",39,0.2,0.3,"AL","South","city",-87.677251,34.79981
"423","Florence","Kentucky","Small","Bike",28,0.2,0.2,"KY","South","city",-84.6266111,38.9989499
"424","Florence","South Carolina","Small","Bike",94,0.6,0.4,"SC","South","city",-79.7625625,34.1954331
"425","Florence","Arizona","Small","Bike",0,0,1.3,"AZ","West","town",-111.3873431,33.0314508
"426","Florissant","Missouri","Small","Bike",31,0.1,0.1,"MO","North Central","city",-90.322614,38.789217
"427","Flower Mound","Texas","Small","Bike",38,0.1,0.1,"TX","South","town",-97.0969552,33.0145673
"428","Folsom","California","Small","Bike",240,0.8,0.4,"CA","West","city",-121.1760583,38.6779591
"429","Fond du Lac","Wisconsin","Small","Bike",258,1.2,0.5,"WI","North Central","city",-88.4470508,43.7730448
"430","Forest Grove","Oregon","Small","Bike",72,0.8,0.8,"OR","West","city",-123.1211134,45.526998
"431","Fort Dodge","Iowa","Small","Bike",69,0.6,0.7,"IA","North Central","city",-94.1680158,42.4974694
"432","Fort Lee","New Jersey","Small","Bike",5,0,0.1,"NJ","Northeast","borough",-73.9701381,40.8509333
"433","Fort Myers","Florida","Small","Bike",292,1.2,0.6,"FL","South","city",-81.8723084,26.640628
"434","Fort Pierce","Florida","Small","Bike",41,0.3,0.3,"FL","South","city",-80.3256056,27.4467056
"435","Fort Smith","Arkansas","Small","Bike",26,0.1,0.1,"AR","South","city",-94.3985475,35.3859242
"436","Fort Walton Beach","Florida","Small","Bike",77,0.8,0.6,"FL","South","city",-86.6170308,30.4200708
"437","Foster City","California","Small","Bike",68,0.5,0.3,"CA","West","city",-122.2710788,37.5585465
"438","Fountain","Colorado","Small","Bike",34,0.3,0.3,"CO","West","city",-104.7008056,38.682219
"439","Fountain Hills","Arizona","Small","Bike",8,0.1,0.2,"AZ","West","town",-111.7256936,33.6042079
"440","Fountain Valley","California","Small","Bike",106,0.4,0.2,"CA","West","city",-117.9544069,33.7090212
"441","Frankfort","Kentucky","Small","Bike",40,0.3,0.3,"KY","South","city",-84.8732835,38.2009055
"442","Franklin","Indiana","Small","Bike",21,0.2,0.2,"IN","North Central","city",-86.0549863,39.4806055
"443","Franklin","Tennessee","Small","Bike",45,0.1,0.2,"TN","South","city",-86.8688899,35.9250637
"444","Franklin","Wisconsin","Small","Bike",0,0,0.1,"WI","North Central","city",-88.0384195,42.888627
"445","Franklin Town","Massachusetts","Small","Bike",44,0.3,0.4,"MA","Northeast","city",-71.396725,42.0834313
"446","Frederick","Maryland","Small","Bike",105,0.3,0.2,"MD","South","city",-77.4105409,39.4142688
"447","Fredericksburg","Virginia","Small","Bike",86,0.7,0.5,"VA","South","city",-77.4605399,38.3031837
"448","Freeport","Illinois","Small","Bike",106,1,0.7,"IL","North Central","city",-89.6212271,42.2966861
"449","Freeport","New York","Small","Bike",170,0.8,0.6,"NY","Northeast","village",-73.5831835,40.6576022
"450","Fremont","Nebraska","Small","Bike",80,0.6,0.6,"NE","North Central","city",-96.4981467,41.4333909
"451","Fridley","Minnesota","Small","Bike",61,0.4,0.4,"MN","North Central","city",-93.2632821,45.0860765
"452","Friendswood","Texas","Small","Bike",25,0.1,0.2,"TX","South","city",-95.2010447,29.5293998
"453","Gadsden","Alabama","Small","Bike",8,0.1,0.1,"AL","South","city",-86.0066386,34.014264
"454","Gahanna","Ohio","Small","Bike",24,0.1,0.2,"OH","North Central","city",-82.8793446,40.0192307
"455","Gainesville","Georgia","Small","Bike",11,0.1,0.1,"GA","South","city",-83.8240663,34.2978794
"456","Gaithersburg","Maryland","Small","Bike",148,0.5,0.4,"MD","South","city",-77.2016062,39.1439689
"457","Galesburg","Illinois","Small","Bike",89,0.7,0.5,"IL","North Central","city",-90.3712395,40.9478158
"458","Gallatin","Tennessee","Small","Bike",0,0,0.3,"TN","South","city",-86.4466599,36.3883809
"459","Gallup","New Mexico","Small","Bike",36,0.4,0.4,"NM","West","city",-108.7425843,35.5280783
"460","Galt","California","Small","Bike",0,0,0.4,"CA","West","city",-121.2999485,38.2546373
"461","Galveston","Texas","Small","Bike",586,2.7,0.7,"TX","South","city",-94.7976958,29.3013479
"462","Garden City","Kansas","Small","Bike",131,1,0.6,"KS","North Central","city",-100.8726618,37.9716898
"463","Garden City","Michigan","Small","Bike",44,0.4,0.3,"MI","North Central","city",-83.3310422,42.3255928
"464","Garden City","New York","Small","Bike",13,0.1,0.2,"NY","Northeast","village",-73.6342954,40.7267682
"465","Gardena","California","Small","Bike",80,0.3,0.3,"CA","West","city",-118.3089624,33.8883487
"466","Gardner","Kansas","Small","Bike",0,0,0.3,"KS","North Central","city",-94.9271868,38.8108408
"467","Gardner","Massachusetts","Small","Bike",37,0.4,0.4,"MA","Northeast","city",-71.998133,42.5750883
"468","Garfield","New Jersey","Small","Bike",95,0.6,0.5,"NJ","Northeast","city",-74.113198,40.8814882
"469","Garfield Heights","Ohio","Small","Bike",28,0.2,0.2,"OH","North Central","city",-81.6059581,41.4169974
"470","Garner","North Carolina","Small","Bike",0,0,0.3,"NC","South","town",-78.6141709,35.7112642
"471","Gary","Indiana","Small","Bike",59,0.2,0.2,"IN","North Central","city",-87.3371523,41.6020403
"472","Gastonia","North Carolina","Small","Bike",18,0.1,0.1,"NC","South","city",-81.1873005,35.262082
"473","Geneva","Illinois","Small","Bike",26,0.3,0.3,"IL","North Central","city",-88.3053525,41.8875281
"474","Georgetown","Kentucky","Small","Bike",0,0,0.2,"KY","South","city",-84.5588311,38.2097967
"475","Georgetown","Texas","Small","Bike",19,0.1,0.1,"TX","South","city",-97.6779842,30.6332618
"476","Germantown","Tennessee","Small","Bike",0,0,0.2,"TN","South","city",-89.8100858,35.0867577
"477","Gillette","Wyoming","Small","Bike",30,0.2,0.3,"WY","West","city",-105.5022205,44.2910915
"478","Gilroy","California","Small","Bike",190,0.9,0.5,"CA","West","city",-121.5566373,37.0029828
"479","Gladstone","Missouri","Small","Bike",0,0,0.2,"MO","North Central","city",-94.554677,39.2038918
"480","Glen Cove","New York","Small","Bike",25,0.2,0.2,"NY","Northeast","city",-73.6337389,40.8623217
"481","Glen Ellyn","Illinois","Small","Bike",35,0.3,0.3,"IL","North Central","village",-88.0670118,41.8775293
"482","Glendale Heights","Illinois","Small","Bike",72,0.4,0.3,"IL","North Central","village",-88.0717353,41.9103068
"483","Glendora","California","Small","Bike",90,0.4,0.2,"CA","West","city",-117.865339,34.1361187
"484","Glenview","Illinois","Small","Bike",44,0.2,0.2,"IL","North Central","village",-87.8223368,42.0778065
"485","Gloucester","Massachusetts","Small","Bike",69,0.5,0.4,"MA","Northeast","city",-70.6619888,42.6159285
"486","Golden Valley","Minnesota","Small","Bike",190,1.8,1.6,"MN","North Central","city",-93.3600034,44.9917149
"487","Goldsboro","North Carolina","Small","Bike",79,0.6,0.3,"NC","South","city",-77.9927651,35.3848841
"488","Goleta","California","Small","Bike",844,5.4,1.3,"CA","West","city",-119.8276389,34.4358294
"489","Goodyear","Arizona","Small","Bike",16,0.1,0.1,"AZ","West","city",-112.3576567,33.4353394
"490","Goose Creek","South Carolina","Small","Bike",61,0.3,0.2,"SC","South","city",-80.0325867,32.9810059
"491","Goshen","Indiana","Small","Bike",260,1.9,1,"IN","North Central","city",-85.8344383,41.5822716
"492","Grand Forks","North Dakota","Small","Bike",387,1.3,0.4,"ND","North Central","city",-97.0328547,47.9252568
"493","Grand Island","Nebraska","Small","Bike",175,0.7,0.5,"NE","North Central","city",-98.3420118,40.9263957
"494","Grand Junction","Colorado","Small","Bike",635,2.3,0.6,"CO","West","city",-108.5506486,39.0638705
"495","Grandview","Missouri","Small","Bike",0,0,0.3,"MO","North Central","city",-94.5330096,38.8858407
"496","Granite City","Illinois","Small","Bike",20,0.2,0.2,"IL","North Central","city",-90.1487199,38.7014389
"497","Grants Pass","Oregon","Small","Bike",181,1.4,0.7,"OR","West","city",-123.3283925,42.4390069
"498","Grapevine","Texas","Small","Bike",134,0.5,0.5,"TX","South","city",-97.0780654,32.9342919
"499","Grayslake","Illinois","Small","Bike",31,0.3,0.3,"IL","North Central","village",-88.041746,42.3444664
"500","Great Falls","Montana","Small","Bike",272,1,0.4,"MT","West","city",-111.3007715,47.5052849
"501","Greeley","Colorado","Small","Bike",725,1.8,0.5,"CO","West","city",-104.7091322,40.4233142
"502","Green","Ohio","Small","Bike",0,0,0.2,"OH","North Central","city",-81.4831714,40.9458898
"503","Greenacres","Florida","Small","Bike",142,0.8,0.7,"FL","South","city",-80.1353896,26.6276276
"504","Greenbelt","Maryland","Small","Bike",24,0.2,0.2,"MD","South","city",-76.8755282,39.0045544
"505","Greenfield","Indiana","Small","Bike",40,0.4,0.5,"IN","North Central","city",-85.7694226,39.785043
"506","Greenfield","Wisconsin","Small","Bike",55,0.3,0.3,"WI","North Central","city",-88.0125865,42.9614039
"507","Greenville","Mississippi","Small","Bike",10,0.1,0.1,"MS","South","city",-91.0377029,33.399661
"508","Greenville","North Carolina","Small","Bike",181,0.4,0.2,"NC","South","city",-77.3663538,35.612661
"509","Greenville","South Carolina","Small","Bike",72,0.3,0.2,"SC","South","city",-82.3940104,34.8526176
"510","Greenville","Texas","Small","Bike",0,0,0.4,"TX","South","city",-96.1108066,33.1384488
"511","Greenwood","Indiana","Small","Bike",28,0.1,0.1,"IN","North Central","city",-86.1066526,39.6136578
"512","Greenwood","South Carolina","Small","Bike",0,0,0.5,"SC","South","city",-82.1617883,34.1954001
"513","Greer","South Carolina","Small","Bike",25,0.2,0.3,"SC","South","city",-82.2270568,34.9387279
"514","Griffin","Georgia","Small","Bike",31,0.4,0.4,"GA","South","city",-84.2640904,33.2467807
"515","Grove City","Ohio","Small","Bike",40,0.2,0.2,"OH","North Central","city",-83.0929644,39.8814519
"516","Gulfport","Mississippi","Small","Bike",84,0.3,0.2,"MS","South","city",-89.0928155,30.3674198
"517","Gurnee","Illinois","Small","Bike",79,0.5,0.4,"IL","North Central","village",-87.9020186,42.3702996
"518","Hackensack","New Jersey","Small","Bike",96,0.4,0.4,"NJ","Northeast","city",-74.0434736,40.8859325
"519","Hagerstown","Maryland","Small","Bike",46,0.3,0.2,"MD","South","city",-77.7199932,39.6417629
"520","Haines City","Florida","Small","Bike",0,0,0.6,"FL","South","city",-81.6178536,28.1141841
"521","Hallandale Beach","Florida","Small","Bike",305,1.9,1.2,"FL","South","city",-80.148379,25.9812024
"522","Haltom City","Texas","Small","Bike",45,0.2,0.2,"TX","South","city",-97.2691817,32.7995738
"523","Hamilton","Ohio","Small","Bike",53,0.2,0.2,"OH","North Central","city",-84.5613355,39.3995008
"524","Hammond","Indiana","Small","Bike",57,0.2,0.2,"IN","North Central","city",-87.5000412,41.5833688
"525","Hammond","Louisiana","Small","Bike",184,2.2,1.2,"LA","South","city",-90.4611995,30.5043583
"526","Hamtramck","Michigan","Small","Bike",11,0.2,0.3,"MI","North Central","city",-83.0496438,42.3928151
"527","Hanford","California","Small","Bike",173,0.8,0.6,"CA","West","city",-119.6456844,36.3274502
"528","Hanover Park","Illinois","Small","Bike",170,0.9,0.6,"IL","North Central","village",-88.1450735,41.9994722
"529","Harker Heights","Texas","Small","Bike",20,0.2,0.3,"TX","South","city",-97.6597376,31.0835102
"530","Harlingen","Texas","Small","Bike",135,0.6,0.4,"TX","South","city",-97.6961026,26.1906306
"531","Harrisburg","Pennsylvania","Small","Bike",91,0.5,0.4,"PA","Northeast","city",-76.8867008,40.2731911
"532","Harrison","New York","Small","Bike",50,0.4,0.5,"NY","Northeast","village",-73.7176337,40.9700171
"533","Harrisonburg","Virginia","Small","Bike",341,1.7,0.8,"VA","South","city",-78.8689155,38.4495688
"534","Harvey","Illinois","Small","Bike",0,0,0.4,"IL","North Central","city",-87.6467131,41.6100344
"535","Hastings","Minnesota","Small","Bike",48,0.4,0.3,"MN","North Central","city",-92.8513706,44.7443293
"536","Hastings","Nebraska","Small","Bike",39,0.3,0.3,"NE","North Central","city",-98.3898726,40.5862583
"537","Hattiesburg","Mississippi","Small","Bike",245,1.2,0.5,"MS","South","city",-89.2903392,31.3271189
"538","Havelock","North Carolina","Small","Bike",57,0.5,0.7,"NC","South","city",-76.9013301,34.8790492
"539","Haverhill","Massachusetts","Small","Bike",35,0.1,0.1,"MA","Northeast","city",-71.0772796,42.7762015
"540","Hawthorne","California","Small","Bike",330,0.9,0.4,"CA","West","city",-118.3525748,33.9164032
"541","Hays","Kansas","Small","Bike",54,0.4,0.4,"KS","North Central","city",-99.3267702,38.8791783
"542","Hazelwood","Missouri","Small","Bike",0,0,0.2,"MO","North Central","city",-90.3709489,38.7714396
"543","Hazleton","Pennsylvania","Small","Bike",11,0.1,0.2,"PA","Northeast","city",-75.9746472,40.9584181
"544","Helena","Montana","Small","Bike",488,3.3,1.1,"MT","West","city",-112.0391057,46.5891452
"545","Hemet","California","Small","Bike",50,0.2,0.2,"CA","West","city",-116.9719684,33.7475203
"546","Hempstead","New York","Small","Bike",255,1,0.9,"NY","Northeast","village",-73.6187397,40.7062128
"547","Henderson","Kentucky","Small","Bike",22,0.2,0.2,"KY","South","city",-87.5900134,37.8361538
"548","Hendersonville","Tennessee","Small","Bike",11,0,0.1,"TN","South","city",-86.6199957,36.3047735
"549","Hercules","California","Small","Bike",38,0.3,0.4,"CA","West","city",-122.2885808,38.0171441
"550","Herndon","Virginia","Small","Bike",7,0.1,0.1,"VA","South","town",-77.3860976,38.9695545
"551","Herriman","Utah","Small","Bike",0,0,0.3,"UT","West","city",-112.0329938,40.5141147
"552","Hesperia","California","Small","Bike",54,0.2,0.2,"CA","West","city",-117.3008784,34.4263886
"553","Hialeah Gardens","Florida","Small","Bike",11,0.1,0.2,"FL","South","city",-80.3244957,25.8650961
"554","Hickory","North Carolina","Small","Bike",23,0.1,0.2,"NC","South","city",-81.3444573,35.7344538
"555","Highland","California","Small","Bike",22,0.1,0.1,"CA","West","city",-117.2086513,34.1283442
"556","Highland Park","Illinois","Small","Bike",90,0.6,0.4,"IL","North Central","city",-87.8003437,42.1816918
"557","Highland","Indiana","Small","Bike",10,0.1,0.1,"IN","North Central","town",-87.451984,41.5536468
"558","Hilliard","Ohio","Small","Bike",12,0.1,0.1,"OH","North Central","city",-83.1582451,40.0333961
"559","Hillsboro","Oregon","Small","Bike",568,1.3,0.5,"OR","West","city",-122.9392109,45.514913
"560","Hilton Head Island","South Carolina","Small","Bike",377,2.3,0.8,"SC","South","town",-80.752608,32.216316
"561","Hinesville","Georgia","Small","Bike",87,0.6,0.5,"GA","South","city",-81.6141099,31.8315028
"562","Hobart","Indiana","Small","Bike",42,0.3,0.3,"IN","North Central","city",-87.2550353,41.5322592
"563","Hobbs","New Mexico","Small","Bike",10,0.1,0.1,"NM","West","city",-103.1360403,32.7026116
"564","Hoboken","New Jersey","Small","Bike",187,0.6,0.4,"NJ","Northeast","city",-74.0323626,40.7439905
"565","Hoffman Estates","Illinois","Small","Bike",341,1.3,1.2,"IL","North Central","village",-88.1227199,42.0629915
"566","Holladay","Utah","Small","Bike",7,0.1,0.1,"UT","West","city",-111.8246557,40.6688363
"567","Holland","Michigan","Small","Bike",316,2.2,0.7,"MI","North Central","city",-86.1089301,42.7875235
"568","Hollister","California","Small","Bike",183,1.2,1,"CA","West","city",-121.4016021,36.8524545
"569","Holly Springs","North Carolina","Small","Bike",0,0,0.3,"NC","South","town",-78.8336218,35.6512655
"570","Holyoke","Massachusetts","Small","Bike",59,0.4,0.3,"MA","Northeast","city",-72.6162009,42.2042586
"571","Homer Glen","Illinois","Small","Bike",0,0,0.2,"IL","North Central","village",-87.9381112,41.6000317
"572","Homestead","Florida","Small","Bike",162,0.6,0.4,"FL","South","city",-80.4775569,25.4687224
"573","Homewood","Alabama","Small","Bike",68,0.5,0.5,"AL","South","city",-86.8008228,33.4717732
"574","Hoover","Alabama","Small","Bike",0,0,0.1,"AL","South","city",-86.8113781,33.4053867
"575","Hopewell","Virginia","Small","Bike",20,0.2,0.3,"VA","South","city",-77.2872001,37.3043154
"576","Hopkinsville","Kentucky","Small","Bike",11,0.1,0.1,"KY","South","city",-87.4886186,36.8656008
"577","Horn Lake","Mississippi","Small","Bike",0,0,0.3,"MS","South","city",-90.0348139,34.9553719
"578","Hot Springs","Arkansas","Small","Bike",47,0.3,0.4,"AR","South","city",-93.0551795,34.5037004
"579","Houma","Louisiana","Small","Bike",76,0.5,0.5,"LA","South","city",-90.7195348,29.5957696
"580","Huber Heights","Ohio","Small","Bike",7,0,0.1,"OH","North Central","city",-84.1246608,39.843947
"581","Hudson","Ohio","Small","Bike",23,0.2,0.3,"OH","North Central","city",-81.440667,41.240056
"582","Huntersville","North Carolina","Small","Bike",75,0.3,0.5,"NC","South","town",-80.8428504,35.410694
"583","Huntington","West Virginia","Small","Bike",207,1,0.4,"WV","South","city",-82.445154,38.4192496
"584","Huntington Park","California","Small","Bike",272,1.1,0.4,"CA","West","city",-118.2250725,33.9816812
"585","Huntley","Illinois","Small","Bike",29,0.3,0.3,"IL","North Central","village",-88.4281415,42.1680796
"586","Huntsville","Texas","Small","Bike",47,0.4,0.6,"TX","South","city",-95.5507771,30.7235263
"587","Hurst","Texas","Small","Bike",52,0.3,0.4,"TX","South","city",-97.1705678,32.8234621
"588","Hutchinson","Kansas","Small","Bike",58,0.3,0.2,"KS","North Central","city",-97.9297743,38.0608445
"589","Idaho Falls","Idaho","Small","Bike",256,1,0.5,"ID","West","city",-112.0407584,43.4926607
"590","Imperial Beach","California","Small","Bike",113,1,0.7,"CA","West","city",-117.1130849,32.5839444
"591","Independence","Kentucky","Small","Bike",0,0,0.3,"KY","South","city",-84.544109,38.9431183
"592","Indian Trail","North Carolina","Small","Bike",14,0.1,0.1,"NC","South","town",-80.6692352,35.0768141
"593","Indio","California","Small","Bike",133,0.5,0.3,"CA","West","city",-116.2155619,33.7205771
"594","Inkster","Michigan","Small","Bike",6,0.1,0.1,"MI","North Central","city",-83.3099303,42.2942045
"595","Inver Grove Heights","Minnesota","Small","Bike",39,0.2,0.2,"MN","North Central","city",-93.0427153,44.8480218
"596","Iowa City","Iowa","Small","Bike",1477,3.9,0.7,"IA","North Central","city",-91.5301683,41.6611277
"597","Issaquah","Washington","Small","Bike",121,0.8,0.7,"WA","West","city",-122.0326191,47.5301011
"598","Ithaca","New York","Small","Bike",283,2.2,1,"NY","Northeast","city",-76.5018807,42.4439614
"599","Jackson","Michigan","Small","Bike",95,0.8,0.5,"MI","North Central","city",-84.4013462,42.245869
"600","Jackson","Tennessee","Small","Bike",29,0.1,0.1,"TN","South","city",-88.8139469,35.6145169
"601","Jacksonville Beach","Florida","Small","Bike",267,2.3,1.1,"FL","South","city",-81.3961338,30.2841224
"602","Jacksonville","Arkansas","Small","Bike",16,0.1,0.2,"AR","South","city",-92.1101458,34.8662005
"603","Jacksonville","North Carolina","Small","Bike",303,0.8,0.6,"NC","South","city",-77.4302414,34.7540524
"604","Jamestown","New York","Small","Bike",52,0.4,0.4,"NY","Northeast","city",-79.2353259,42.0970023
"605","Janesville","Wisconsin","Small","Bike",95,0.3,0.2,"WI","North Central","city",-89.0187222,42.6827885
"606","Jefferson City","Missouri","Small","Bike",23,0.1,0.1,"MO","North Central","city",-92.1735164,38.5767017
"607","Jeffersontown","Kentucky","Small","Bike",12,0.1,0.1,"KY","South","city",-85.5644033,38.1942356
"608","Jeffersonville","Indiana","Small","Bike",87,0.4,0.4,"IN","North Central","city",-85.7371847,38.2775702
"609","Johns Creek","Georgia","Small","Bike",80,0.2,0.2,"GA","South","city",-84.198579,34.0289259
"610","Johnson City","Tennessee","Small","Bike",45,0.2,0.1,"TN","South","city",-82.3534727,36.3134397
"611","Johnstown","Pennsylvania","Small","Bike",10,0.1,0.2,"PA","Northeast","city",-78.9219698,40.3267407
"612","Jonesboro","Arkansas","Small","Bike",104,0.3,0.2,"AR","South","city",-90.704279,35.8422967
"613","Joplin","Missouri","Small","Bike",48,0.2,0.2,"MO","North Central","city",-94.513281,37.0842271
"614","Junction City","Kansas","Small","Bike",8,0.1,0.1,"KS","North Central","city",-96.8313978,39.0286093
"615","Juneau","Alaska","Small","Bike",213,1.3,0.5,"AK","West","city and borough",-134.4197221,58.3019444
"616","Jupiter","Florida","Small","Bike",179,0.7,0.4,"FL","South","town",-80.0942087,26.9342246
"617","Jurupa Valley","California","Small","Bike",86,0.2,0.1,"CA","West","city",-117.4854802,33.9971974
"618","Kalamazoo","Michigan","Small","Bike",322,1,0.4,"MI","North Central","city",-85.5872286,42.2917069
"619","Kalispell","Montana","Small","Bike",188,2.1,1.3,"MT","West","city",-114.316813,48.1919889
"620","Kankakee","Illinois","Small","Bike",42,0.4,0.3,"IL","North Central","city",-87.8611531,41.1200325
"621","Kannapolis","North Carolina","Small","Bike",35,0.2,0.2,"NC","South","city",-80.6217341,35.4873613
"622","Kaysville","Utah","Small","Bike",26,0.2,0.2,"UT","West","city",-111.9385521,41.0352216
"623","Kearney","Nebraska","Small","Bike",217,1.3,0.7,"NE","North Central","city",-99.0816784,40.6993303
"624","Kearny","New Jersey","Small","Bike",21,0.1,0.2,"NJ","Northeast","town",-74.1454214,40.7684342
"625","Keene","New Hampshire","Small","Bike",112,1,0.7,"NH","Northeast","city",-72.2781409,42.933692
"626","Keizer","Oregon","Small","Bike",159,1,0.6,"OR","West","city",-123.0262077,44.9901194
"627","Keller","Texas","Small","Bike",15,0.1,0.1,"TX","South","city",-97.229298,32.9341893
"628","Kenmore","Washington","Small","Bike",51,0.5,0.5,"WA","West","city",-122.2496863,47.7583576
"629","Kenner","Louisiana","Small","Bike",111,0.3,0.4,"LA","South","city",-90.2417434,29.9940924
"630","Kennesaw","Georgia","Small","Bike",0,0,0.3,"GA","South","city",-84.6154897,34.0234337
"631","Kennewick","Washington","Small","Bike",92,0.3,0.2,"WA","West","city",-119.119948,46.2086683
"632","Kent","Ohio","Small","Bike",191,1.3,0.7,"OH","North Central","city",-81.3578859,41.1536674
"633","Kentwood","Michigan","Small","Bike",197,0.8,0.6,"MI","North Central","city",-85.6447492,42.8694731
"634","Kernersville","North Carolina","Small","Bike",0,0,0.3,"NC","South","town",-80.0736533,36.1198588
"635","Kerrville","Texas","Small","Bike",31,0.4,0.4,"TX","South","city",-99.1403189,30.0474332
"636","Kettering","Ohio","Small","Bike",119,0.4,0.3,"OH","North Central","city",-84.1688274,39.6895036
"637","Key West","Florida","Small","Bike",2439,17.4,2.9,"FL","South","city",-81.7799871,24.5550593
"638","Kingman","Arizona","Small","Bike",32,0.3,0.3,"AZ","West","city",-114.0530065,35.189443
"639","Kingsport","Tennessee","Small","Bike",37,0.2,0.2,"TN","South","city",-82.5618186,36.548434
"640","Kingston","New York","Small","Bike",84,0.8,0.6,"NY","Northeast","city",-73.9973608,41.9270367
"641","Kingsville","Texas","Small","Bike",15,0.1,0.2,"TX","South","city",-97.856109,27.5158689
"642","Kinston","North Carolina","Small","Bike",20,0.3,0.3,"NC","South","city",-77.5816353,35.2626635
"643","Kirkland","Washington","Small","Bike",273,1,0.4,"WA","West","city",-122.2059833,47.6768927
"644","Kirkwood","Missouri","Small","Bike",15,0.1,0.2,"MO","North Central","city",-90.406785,38.5833862
"645","Kiryas Joel","New York","Small","Bike",0,0,0.9,"NY","Northeast","village",-74.167924,41.3420381
"646","Kissimmee","Florida","Small","Bike",243,0.9,0.6,"FL","South","city",-81.407571,28.2919557
"647","Klamath Falls","Oregon","Small","Bike",31,0.3,0.3,"OR","West","city",-121.7816704,42.224867
"648","Kokomo","Indiana","Small","Bike",141,0.7,0.3,"IN","North Central","city",-86.1336033,40.486427
"649","Kyle","Texas","Small","Bike",0,0,0.3,"TX","South","city",-97.8772267,29.9891052
"650","La Caada Flintridge","California","Small","Bike",12,0.1,0.2,"CA","West","city",-118.2000277,34.2068182
"651","La Crosse","Wisconsin","Small","Bike",701,2.6,0.7,"WI","North Central","city",-91.2519017,43.8137751
"652","La Habra","California","Small","Bike",143,0.5,0.3,"CA","West","city",-117.946137,33.9318591
"653","La Mesa","California","Small","Bike",110,0.4,0.3,"CA","West","city",-117.0230839,32.7678287
"654","La Mirada","California","Small","Bike",134,0.6,0.3,"CA","West","city",-118.0120086,33.9172357
"655","La Porte","Indiana","Small","Bike",41,0.4,0.5,"IN","North Central","city",-86.7227195,41.611143
"656","La Porte","Texas","Small","Bike",62,0.4,0.4,"TX","South","city",-95.0193728,29.6657838
"657","La Puente","California","Small","Bike",244,1.4,0.9,"CA","West","city",-117.9495083,34.0200114
"658","La Quinta","California","Small","Bike",158,1,0.8,"CA","West","city",-116.3100095,33.6633573
"659","La Vergne","Tennessee","Small","Bike",10,0.1,0.1,"TN","South","city",-86.5819394,36.0156178
"660","La Verne","California","Small","Bike",69,0.5,0.4,"CA","West","city",-117.7678355,34.1008426
"661","Lacey","Washington","Small","Bike",90,0.5,0.3,"WA","West","city",-122.8232553,47.0358969
"662","Lafayette","California","Small","Bike",30,0.3,0.3,"CA","West","city",-122.1180201,37.8857582
"663","Lafayette","Colorado","Small","Bike",130,1,0.5,"CO","West","city",-105.0897058,39.9935959
"664","Lafayette","Indiana","Small","Bike",232,0.7,0.4,"IN","North Central","city",-86.8752869,40.4167022
"665","LaGrange","Georgia","Small","Bike",6,0.1,0.1,"GA","South","city",-85.0322444,33.0362218
"666","Laguna Beach","California","Small","Bike",60,0.5,0.5,"CA","West","city",-117.7853568,33.5427189
"667","Laguna Hills","California","Small","Bike",138,0.9,0.6,"CA","West","city",-117.6986604,33.5916433
"668","Laguna Niguel","California","Small","Bike",54,0.2,0.2,"CA","West","city",-117.7149438,33.5236744
"669","Lake Charles","Louisiana","Small","Bike",81,0.3,0.2,"LA","South","city",-93.2173758,30.2265949
"670","Lake Elsinore","California","Small","Bike",0,0,0.2,"CA","West","city",-117.3272615,33.6680772
"671","Lake Forest","California","Small","Bike",246,0.6,0.3,"CA","West","city",-117.6861023,33.6469437
"672","Lake Havasu City","Arizona","Small","Bike",47,0.2,0.2,"AZ","West","city",-114.3224548,34.483901
"673","Lake in the Hills","Illinois","Small","Bike",0,0,0.2,"IL","North Central","village",-88.3303618,42.1816908
"674","Lake Jackson","Texas","Small","Bike",7,0.1,0.1,"TX","South","city",-95.4343859,29.0338575
"675","Lake Oswego","Oregon","Small","Bike",98,0.6,0.4,"OR","West","city",-122.7163273,45.415734
"676","Lake Stevens","Washington","Small","Bike",0,0,0.2,"WA","West","city",-122.0637425,48.015098
"677","Lake Worth","Florida","Small","Bike",126,0.8,0.7,"FL","South","city",-80.0684479,26.6167555
"678","Lakeland","Florida","Small","Bike",206,0.5,0.3,"FL","South","city",-81.9498042,28.0394654
"679","Lakeville","Minnesota","Small","Bike",55,0.2,0.2,"MN","North Central","city",-93.24272,44.6496868
"680","Lakewood","California","Small","Bike",247,0.6,0.3,"CA","West","city",-118.1339563,33.8536269
"681","Lakewood","Ohio","Small","Bike",171,0.6,0.3,"OH","North Central","city",-81.7981908,41.4819932
"682","Lakewood","Washington","Small","Bike",128,0.5,0.4,"WA","West","city",-122.518458,47.1717649
"683","Lancaster","Ohio","Small","Bike",34,0.2,0.2,"OH","North Central","city",-82.5993294,39.7136754
"684","Lancaster","Pennsylvania","Small","Bike",200,0.8,0.4,"PA","Northeast","city",-76.3055144,40.0378755
"685","Lancaster","Texas","Small","Bike",0,0,0.2,"TX","South","city",-96.7561082,32.5920798
"686","Lansing","Illinois","Small","Bike",3,0,0.1,"IL","North Central","village",-87.538931,41.5647575
"687","Laramie","Wyoming","Small","Bike",1088,6.8,1.8,"WY","West","city",-105.5911007,41.3113669
"688","Largo","Florida","Small","Bike",441,1.4,0.6,"FL","South","city",-82.7873244,27.9094665
"689","Lauderdale Lakes","Florida","Small","Bike",15,0.1,0.2,"FL","South","city",-80.2083806,26.1664736
"690","Lauderhill","Florida","Small","Bike",51,0.2,0.2,"FL","South","city",-80.2133808,26.1403635
"691","Laurel","Maryland","Small","Bike",143,1,1.2,"MD","South","city",-76.8483061,39.0992752
"692","Lawndale","California","Small","Bike",316,2.2,1.2,"CA","West","city",-118.3525744,33.887237
"693","Lawrence","Indiana","Small","Bike",0,0,0.1,"IN","North Central","city",-86.0252612,39.8386516
"694","Lawrence","Kansas","Small","Bike",885,1.9,0.6,"KS","North Central","city",-95.2352501,38.9716689
"695","Lawrence","Massachusetts","Small","Bike",9,0,0.1,"MA","Northeast","city",-71.1631137,42.7070354
"696","Lawrenceville","Georgia","Small","Bike",0,0,0.3,"GA","South","city",-83.9879625,33.9562149
"697","Lawton","Oklahoma","Small","Bike",75,0.2,0.1,"OK","South","city",-98.3959291,34.6035669
"698","Layton","Utah","Small","Bike",42,0.1,0.1,"UT","West","city",-111.9710529,41.0602216
"699","League City","Texas","Small","Bike",87,0.2,0.2,"TX","South","city",-95.0949303,29.5074538
"700","Leander","Texas","Small","Bike",7,0.1,0.1,"TX","South","city",-97.8530686,30.5788055
"701","Leavenworth","Kansas","Small","Bike",159,1.1,0.6,"KS","North Central","city",-94.9224637,39.3111112
"702","Leawood","Kansas","Small","Bike",14,0.1,0.1,"KS","North Central","city",-94.6169012,38.966673
"703","Lebanon","Ohio","Small","Bike",0,0,0.3,"OH","North Central","city",-84.2029922,39.4353373
"704","Lebanon","Pennsylvania","Small","Bike",118,1.1,0.9,"PA","Northeast","city",-76.4113497,40.3409251
"705","Lebanon","Tennessee","Small","Bike",12,0.1,0.2,"TN","South","city",-86.2911024,36.2081098
"706","Lee's Summit","Missouri","Small","Bike",8,0,0.1,"MO","North Central","city",-94.3821724,38.9108408
"707","Leesburg","Florida","Small","Bike",50,0.7,0.9,"FL","South","city",-81.8778582,28.810823
"708","Leesburg","Virginia","Small","Bike",69,0.3,0.4,"VA","South","town",-77.5636015,39.1156615
"709","Lehi","Utah","Small","Bike",26,0.1,0.2,"UT","West","city",-111.8507662,40.3916172
"710","Lemon Grove","California","Small","Bike",31,0.3,0.2,"CA","West","city",-117.0314172,32.7425516
"711","Lemoore","California","Small","Bike",60,0.5,0.7,"CA","West","city",-119.7829107,36.3007835
"712","Lenexa","Kansas","Small","Bike",47,0.2,0.1,"KS","North Central","city",-94.7335709,38.9536174
"713","Leominster","Massachusetts","Small","Bike",45,0.2,0.4,"MA","Northeast","city",-71.759794,42.5250906
"714","Lewiston","Idaho","Small","Bike",80,0.5,0.4,"ID","West","city",-117.001189,46.4004089
"715","Lewiston","Maine","Small","Bike",65,0.4,0.3,"ME","Northeast","city",-70.2147764,44.100351
"716","Lewisville","Texas","Small","Bike",291,0.6,0.3,"TX","South","city",-96.994174,33.046233
"717","Liberal","Kansas","Small","Bike",110,1.2,1.2,"KS","North Central","city",-100.920999,37.0430812
"718","Liberty","Missouri","Small","Bike",4,0,0.1,"MO","North Central","city",-94.4191177,39.2461138
"719","Libertyville","Illinois","Small","Bike",90,0.9,0.6,"IL","North Central","village",-87.9531303,42.2830786
"720","Lima","Ohio","Small","Bike",45,0.3,0.3,"OH","North Central","city",-84.1052256,40.742551
"721","Lincoln","California","Small","Bike",118,0.8,0.6,"CA","West","city",-121.2930079,38.891565
"722","Lincoln Park","Michigan","Small","Bike",52,0.4,0.3,"MI","North Central","city",-83.1785361,42.2505943
"723","Linden","New Jersey","Small","Bike",22,0.1,0.1,"NJ","Northeast","city",-74.2445902,40.6220478
"724","Lindenhurst","New York","Small","Bike",0,0,0.2,"NY","Northeast","village",-73.3734547,40.6867667
"725","Lino Lakes","Minnesota","Small","Bike",38,0.4,0.3,"MN","North Central","city",-93.0888324,45.1602442
"726","Lisle","Illinois","Small","Bike",10,0.1,0.1,"IL","North Central","village",-88.0747875,41.801141
"727","Little Elm","Texas","Small","Bike",0,0,0.3,"TX","South","city",-96.9375051,33.1626193
"728","Littleton","Colorado","Small","Bike",93,0.4,0.2,"CO","West","city",-105.0166498,39.613321
"729","Livermore","California","Small","Bike",480,1.2,0.3,"CA","West","city",-121.7684732,37.6818688
"730","Livonia","Michigan","Small","Bike",45,0.1,0.1,"MI","North Central","city",-83.3527097,42.36837
"731","Lockport","Illinois","Small","Bike",0,0,0.2,"IL","North Central","city",-88.057837,41.5894752
"732","Lockport","New York","Small","Bike",57,0.6,0.5,"NY","Northeast","city",-78.6903098,43.1706128
"733","Lodi","New Jersey","Small","Bike",84,0.7,0.6,"NJ","Northeast","borough",-74.0831971,40.8823215
"734","Lodi","California","Small","Bike",173,0.7,0.3,"CA","West","city",-121.2722194,38.1341477
"735","Logan","Utah","Small","Bike",982,4.1,1.1,"UT","West","city",-111.8338359,41.7369803
"736","Loma Linda","California","Small","Bike",93,0.9,0.8,"CA","West","city",-117.2611527,34.0483474
"737","Lombard","Illinois","Small","Bike",143,0.6,0.7,"IL","North Central","village",-88.0078435,41.8800296
"738","Lomita","California","Small","Bike",147,1.5,0.9,"CA","West","city",-118.3150722,33.7922392
"739","Lompoc","California","Small","Bike",81,0.5,0.3,"CA","West","city",-120.4579409,34.6391501
"740","Long Beach","New York","Small","Bike",194,1.1,0.5,"NY","Northeast","city",-73.657908,40.5884373
"741","Long Branch","New Jersey","Small","Bike",296,1.9,1.4,"NJ","Northeast","city",-73.9923596,40.3042778
"742","Longmont","Colorado","Small","Bike",410,1,0.3,"CO","West","city",-105.1019275,40.1672068
"743","Longview","Texas","Small","Bike",133,0.4,0.3,"TX","South","city",-94.7404891,32.5007037
"744","Longview","Washington","Small","Bike",141,1,0.5,"WA","West","city",-122.9381672,46.1381676
"745","Lorain","Ohio","Small","Bike",72,0.3,0.3,"OH","North Central","city",-82.1823746,41.452819
"746","Los Altos","California","Small","Bike",216,1.8,0.9,"CA","West","city",-122.1141298,37.3852183
"747","Los Banos","California","Small","Bike",48,0.4,0.4,"CA","West","city",-120.8499151,37.0582786
"748","Los Gatos","California","Small","Bike",96,0.7,0.5,"CA","West","town",-121.9623751,37.2358078
"749","Loveland","Colorado","Small","Bike",297,0.9,0.4,"CO","West","city",-105.0749801,40.3977612
"750","Loves Park","Illinois","Small","Bike",36,0.3,0.4,"IL","North Central","city",-89.0581621,42.3200189
"751","Lufkin","Texas","Small","Bike",72,0.5,0.4,"TX","South","city",-94.729097,31.3382406
"752","Lumberton","North Carolina","Small","Bike",13,0.2,0.3,"NC","South","city",-79.0086424,34.6182199
"753","Lynchburg","Virginia","Small","Bike",34,0.1,0.1,"VA","South","city",-79.1422464,37.4137536
"754","Lynn","Massachusetts","Small","Bike",280,0.7,0.5,"MA","Northeast","city",-70.9494938,42.466763
"755","Lynnwood","Washington","Small","Bike",31,0.2,0.2,"WA","West","city",-122.3151314,47.8209301
"756","Lynwood","California","Small","Bike",114,0.5,0.3,"CA","West","city",-118.2114603,33.930293
"757","Machesney Park","Illinois","Small","Bike",21,0.2,0.2,"IL","North Central","village",-89.0389956,42.3472406
"758","Macon","Georgia","Small","Bike",46,0.1,0.1,"GA","South","city",-83.6324022,32.8406946
"759","Madera","California","Small","Bike",89,0.5,0.4,"CA","West","city",-120.0607176,36.9613356
"760","Madison","Alabama","Small","Bike",56,0.3,0.3,"AL","South","city",-86.7483318,34.6992579
"761","Madison","Mississippi","Small","Bike",0,0,0.3,"MS","South","city",-90.1153638,32.4618086
"762","Madison Heights","Michigan","Small","Bike",45,0.3,0.3,"MI","North Central","city",-83.1052028,42.4858692
"763","Malden","Massachusetts","Small","Bike",240,0.8,0.5,"MA","Northeast","city",-71.066163,42.4250964
"764","Manassas","Virginia","Small","Bike",65,0.3,0.5,"VA","South","city",-77.4752667,38.7509488
"765","Manhattan Beach","California","Small","Bike",123,0.7,0.4,"CA","West","city",-118.4109089,33.8847361
"766","Manhattan","Kansas","Small","Bike",357,1.2,0.5,"KS","North Central","city",-96.5716694,39.1836082
"767","Manitowoc","Wisconsin","Small","Bike",146,0.9,0.5,"WI","North Central","city",-87.657584,44.0886059
"768","Mankato","Minnesota","Small","Bike",175,0.8,0.3,"MN","North Central","city",-93.9993996,44.1635775
"769","Mansfield","Ohio","Small","Bike",11,0.1,0.1,"OH","North Central","city",-82.5154471,40.75839
"770","Mansfield","Texas","Small","Bike",0,0,0.1,"TX","South","city",-97.1416768,32.5631924
"771","Manteca","California","Small","Bike",80,0.3,0.2,"CA","West","city",-121.2160526,37.7974273
"772","Maple Grove","Minnesota","Small","Bike",69,0.2,0.1,"MN","North Central","city",-93.4557877,45.0724642
"773","Maple Heights","Ohio","Small","Bike",28,0.3,0.4,"OH","North Central","city",-81.565956,41.4153313
"774","Maple Valley","Washington","Small","Bike",13,0.1,0.2,"WA","West","city",-122.0453589,47.3903403
"775","Maplewood","Minnesota","Small","Bike",76,0.4,0.3,"MN","North Central","city",-92.9952153,44.9530215
"776","Marana","Arizona","Small","Bike",28,0.2,0.2,"AZ","West","town",-111.2224422,32.436381
"777","Margate","Florida","Small","Bike",115,0.5,0.3,"FL","South","city",-80.206436,26.2445263
"778","Maricopa","Arizona","Small","Bike",158,0.8,0.9,"AZ","West","city",-112.0476423,33.0581063
"779","Marietta","Georgia","Small","Bike",125,0.4,0.4,"GA","South","city",-84.5499327,33.952602
"780","Marina","California","Small","Bike",73,0.8,0.6,"CA","West","city",-121.802173,36.6844029
"781","Marion","Indiana","Small","Bike",79,0.7,0.4,"IN","North Central","city",-85.6591442,40.5583739
"782","Marion","Iowa","Small","Bike",79,0.4,0.4,"IA","North Central","city",-91.5968958,42.033279
"783","Marion","Ohio","Small","Bike",0,0,0.2,"OH","North Central","city",-83.1285242,40.5886699
"784","Marlborough","Massachusetts","Small","Bike",0,0,0.2,"MA","Northeast","city",-71.5522874,42.3459271
"785","Marquette","Michigan","Small","Bike",224,2.2,1,"MI","North Central","city",-87.3953713,46.5436199
"786","Marshall","Texas","Small","Bike",0,0,0.4,"TX","South","city",-94.3674184,32.5448714
"787","Marshalltown","Iowa","Small","Bike",157,1.3,0.8,"IA","North Central","city",-92.9080375,42.0494674
"788","Martinez","California","Small","Bike",111,0.6,0.4,"CA","West","city",-122.1341321,38.0193657
"789","Maryland Heights","Missouri","Small","Bike",0,0,0.2,"MO","North Central","city",-90.4298401,38.7131073
"790","Marysville","Ohio","Small","Bike",5,0.1,0.1,"OH","North Central","city",-83.3671432,40.2364486
"791","Marysville","Washington","Small","Bike",63,0.2,0.2,"WA","West","city",-122.1770818,48.0517637
"792","Maryville","Tennessee","Small","Bike",37,0.3,0.3,"TN","South","city",-83.9704593,35.7564719
"793","Mason City","Iowa","Small","Bike",138,1,0.6,"IA","North Central","city",-93.2010367,43.1535728
"794","Mason","Ohio","Small","Bike",11,0.1,0.1,"OH","North Central","city",-84.309939,39.3600586
"795","Massillon","Ohio","Small","Bike",12,0.1,0.1,"OH","North Central","city",-81.5215093,40.7967244
"796","Matthews","North Carolina","Small","Bike",14,0.1,0.2,"NC","South","town",-80.7236804,35.1168131
"797","Mauldin","South Carolina","Small","Bike",0,0,0.3,"SC","South","city",-82.310119,34.77873
"798","Maywood","California","Small","Bike",177,1.6,0.9,"CA","West","city",-118.185349,33.9866807
"799","Maywood","Illinois","Small","Bike",0,0,0.3,"IL","North Central","village",-87.8431155,41.8791979
"800","McDonough","Georgia","Small","Bike",40,0.5,0.7,"GA","South","city",-84.1468616,33.4473361
"801","McHenry","Illinois","Small","Bike",13,0.1,0.2,"IL","North Central","city",-88.2667534,42.333355
"802","McMinnville","Oregon","Small","Bike",283,2.1,1.3,"OR","West","city",-123.1987163,45.2101162
"803","Medford","Massachusetts","Small","Bike",542,1.7,0.5,"MA","Northeast","city",-71.1061639,42.4184296
"804","Medford","Oregon","Small","Bike",349,1.1,0.5,"OR","West","city",-122.8755949,42.3265152
"805","Medina","Ohio","Small","Bike",25,0.2,0.2,"OH","North Central","city",-81.8552196,41.143245
"806","Melbourne","Florida","Small","Bike",258,0.8,0.4,"FL","South","city",-80.6081089,28.0836269
"807","Melrose","Massachusetts","Small","Bike",157,1.1,0.7,"MA","Northeast","city",-71.0661633,42.4584292
"808","Melrose Park","Illinois","Small","Bike",25,0.2,0.3,"IL","North Central","village",-87.8567276,41.9005865
"809","Menifee","California","Small","Bike",95,0.3,0.3,"CA","West","city",-117.185294,33.6971468
"810","Menlo Park","California","Small","Bike",1186,7.6,1.6,"CA","West","city",-122.1817252,37.4529598
"811","Menomonee Falls","Wisconsin","Small","Bike",0,0,0.1,"WI","North Central","village",-88.1173132,43.1788967
"812","Mentor","Ohio","Small","Bike",31,0.1,0.2,"OH","North Central","city",-81.339552,41.6661573
"813","Mequon","Wisconsin","Small","Bike",32,0.3,0.4,"WI","North Central","city",-88.0314174,43.2159232
"814","Merced","California","Small","Bike",165,0.6,0.3,"CA","West","city",-120.4829677,37.3021632
"815","Mercer Island","Washington","Small","Bike",84,0.8,0.6,"WA","West","city",-122.2220674,47.5706548
"816","Meriden","Connecticut","Small","Bike",49,0.2,0.2,"CT","Northeast","city",-72.8070435,41.5381535
"817","Meridian","Idaho","Small","Bike",85,0.3,0.2,"ID","West","city",-116.3915131,43.6121087
"818","Meridian","Mississippi","Small","Bike",0,0,0.2,"MS","South","city",-88.703656,32.3643098
"819","Merrillville","Indiana","Small","Bike",14,0.1,0.1,"IN","North Central","town",-87.3328139,41.4828144
"820","Methuen Town","Massachusetts","Small","Bike",11,0,0.1,"MA","Northeast","city",-71.1908924,42.7262016
"821","Miami Beach","Florida","Small","Bike",2449,5.1,1.2,"FL","South","city",-80.1300455,25.790654
"822","Miami Lakes","Florida","Small","Bike",0,0,0.3,"FL","South","town",-80.3086619,25.9087056
"823","Miamisburg","Ohio","Small","Bike",0,0,0.3,"OH","North Central","city",-84.2866083,39.6428362
"824","Michigan City","Indiana","Small","Bike",36,0.3,0.4,"IN","North Central","city",-86.8950297,41.7075394
"825","Middletown","Connecticut","Small","Bike",44,0.2,0.2,"CT","Northeast","city",-72.6506488,41.5623209
"826","Middletown","New York","Small","Bike",48,0.4,0.4,"NY","Northeast","city",-74.4229341,41.4459271
"827","Middletown","Ohio","Small","Bike",20,0.1,0.1,"OH","North Central","city",-84.3982763,39.5150576
"828","Midland","Michigan","Small","Bike",265,1.4,0.6,"MI","North Central","city",-84.2472116,43.6155825
"829","Midvale","Utah","Small","Bike",28,0.2,0.2,"UT","West","city",-111.8999353,40.6110589
"830","Midwest City","Oklahoma","Small","Bike",127,0.5,0.3,"OK","South","city",-97.3967019,35.4495065
"831","Milford city (balance)","Connecticut","Small","Bike",28,0.1,0.1,"CT","Northeast","city (balance)",-73.064036,41.2306979
"832","Millbrae","California","Small","Bike",20,0.2,0.2,"CA","West","city",-122.3871942,37.5985468
"833","Millville","New Jersey","Small","Bike",50,0.4,0.4,"NJ","Northeast","city",-75.0393438,39.4020596
"834","Milpitas","California","Small","Bike",39,0.1,0.1,"CA","West","city",-121.8995741,37.4323341
"835","Milton","Georgia","Small","Bike",0,0,0.3,"GA","South","city",-84.300666,34.1321631
"836","Milwaukie","Oregon","Small","Bike",82,0.8,0.5,"OR","West","city",-122.6322812,45.4465305
"837","Minnetonka","Minnesota","Small","Bike",138,0.5,0.2,"MN","North Central","city",-93.4687489,44.9211836
"838","Minot","North Dakota","Small","Bike",128,0.6,0.4,"ND","North Central","city",-101.2922906,48.2329668
"839","Mint Hill","North Carolina","Small","Bike",0,0,0.4,"NC","South","town",-80.6570304,35.1735404
"840","Mishawaka","Indiana","Small","Bike",133,0.6,0.3,"IN","North Central","city",-86.1586156,41.6619927
"841","Mission","Texas","Small","Bike",40,0.1,0.2,"TX","South","city",-98.3252932,26.2159066
"842","Mission Viejo","California","Small","Bike",70,0.2,0.1,"CA","West","city",-117.6581562,33.5968913
"843","Missoula","Montana","Small","Bike",2160,6.2,0.9,"MT","West","city",-113.9940314,46.8721284
"844","Missouri City","Texas","Small","Bike",0,0,0.1,"TX","South","city",-95.5377215,29.6185669
"845","Moline","Illinois","Small","Bike",88,0.4,0.3,"IL","North Central","city",-90.5151342,41.5067003
"846","Monroe","Louisiana","Small","Bike",71,0.4,0.3,"LA","South","city",-92.1193012,32.5093109
"847","Monroe","Michigan","Small","Bike",24,0.3,0.3,"MI","North Central","city",-83.3977101,41.9164343
"848","Monroe","North Carolina","Small","Bike",19,0.1,0.2,"NC","South","city",-80.5495112,34.9854275
"849","Monroeville","Pennsylvania","Small","Bike",0,0,0.2,"PA","Northeast","municipality",-79.7881024,40.4211798
"850","Monrovia","California","Small","Bike",133,0.7,0.5,"CA","West","city",-118.0019482,34.1442616
"851","Montclair","California","Small","Bike",56,0.4,0.4,"CA","West","city",-117.6897776,34.0775104
"852","Montebello","California","Small","Bike",64,0.3,0.2,"CA","West","city",-118.1137535,34.0165053
"853","Monterey","California","Small","Bike",477,3.1,1,"CA","West","city",-121.8946761,36.6002378
"854","Monterey Park","California","Small","Bike",113,0.4,0.3,"CA","West","city",-118.1228476,34.0625106
"855","Moore","Oklahoma","Small","Bike",22,0.1,0.1,"OK","South","city",-97.4867028,35.3395079
"856","Mooresville","North Carolina","Small","Bike",13,0.1,0.2,"NC","South","town",-80.8081413,35.5859146
"857","Moorhead","Minnesota","Small","Bike",177,0.9,0.4,"MN","North Central","city",-96.7678039,46.8737648
"858","Moorpark","California","Small","Bike",29,0.2,0.2,"CA","West","city",-118.8820414,34.285558
"859","Morgan Hill","California","Small","Bike",142,0.8,0.5,"CA","West","city",-121.6543901,37.1305012
"860","Morgantown","West Virginia","Small","Bike",72,0.6,0.5,"WV","South","city",-79.9558968,39.629526
"861","Morristown","Tennessee","Small","Bike",13,0.1,0.2,"TN","South","city",-83.2948922,36.2139814
"862","Morrisville","North Carolina","Small","Bike",62,0.6,0.5,"NC","South","town",-78.8255621,35.823483
"863","Morton Grove","Illinois","Small","Bike",60,0.5,0.4,"IL","North Central","village",-87.7825621,42.0405852
"864","Moscow","Idaho","Small","Bike",581,5,1.6,"ID","West","city",-117.000165,46.7323875
"865","Moses Lake","Washington","Small","Bike",10,0.1,0.2,"WA","West","city",-119.2780771,47.1301417
"866","Mount Juliet","Tennessee","Small","Bike",0,0,0.3,"TN","South","city",-86.5186054,36.200055
"867","Mount Pleasant","Michigan","Small","Bike",373,3.4,1.2,"MI","North Central","city",-84.7675139,43.5978075
"868","Mount Pleasant","South Carolina","Small","Bike",261,0.8,0.4,"SC","South","town",-79.8284258,32.8323225
"869","Mount Pleasant","Wisconsin","Small","Bike",0,0,0.2,"WI","North Central","village",-87.8844309,42.7369942
"870","Mount Prospect","Illinois","Small","Bike",160,0.6,0.3,"IL","North Central","village",-87.9372908,42.0664167
"871","Mount Vernon","New York","Small","Bike",0,0,0.1,"NY","Northeast","city",-73.8370786,40.9125992
"872","Mount Vernon","Washington","Small","Bike",70,0.5,0.5,"WA","West","city",-122.3374543,48.4201105
"873","Mountain Brook","Alabama","Small","Bike",35,0.4,0.4,"AL","South","city",-86.7522107,33.5009384
"874","Mountain View","California","Small","Bike",1707,4.2,0.8,"CA","West","city",-122.0838511,37.3860517
"875","Mountlake Terrace","Washington","Small","Bike",41,0.4,0.3,"WA","West","city",-122.3087405,47.7881528
"876","Mukilteo","Washington","Small","Bike",31,0.3,0.3,"WA","West","city",-122.3045815,47.9445396
"877","Muncie","Indiana","Small","Bike",452,1.6,0.5,"IN","North Central","city",-85.3863599,40.1933767
"878","Mundelein","Illinois","Small","Bike",29,0.2,0.2,"IL","North Central","village",-88.0039653,42.263079
"879","Munster","Indiana","Small","Bike",14,0.1,0.2,"IN","North Central","town",-87.5125412,41.5644798
"880","Murray","Utah","Small","Bike",127,0.5,0.3,"UT","West","city",-111.8879909,40.6668916
"881","Murrysville","Pennsylvania","Small","Bike",23,0.2,0.3,"PA","Northeast","municipality",-79.697545,40.4284015
"882","Muscatine","Iowa","Small","Bike",9,0.1,0.1,"IA","North Central","city",-91.0432051,41.424473
"883","Muskego","Wisconsin","Small","Bike",0,0,0.2,"WI","North Central","city",-88.1389779,42.905848
"884","Muskegon","Michigan","Small","Bike",63,0.5,0.4,"MI","North Central","city",-86.2483921,43.2341813
"885","Muskogee","Oklahoma","Small","Bike",5,0,0.1,"OK","South","city",-95.3696909,35.7478769
"886","Myrtle Beach","South Carolina","Small","Bike",189,1.5,0.9,"SC","South","city",-78.8866943,33.6890603
"887","Nacogdoches","Texas","Small","Bike",108,0.8,0.6,"TX","South","city",-94.6554874,31.6035129
"888","Nampa","Idaho","Small","Bike",88,0.3,0.2,"ID","West","city",-116.55978,43.5788175
"889","Napa","California","Small","Bike",320,0.9,0.5,"CA","West","city",-122.286865,38.2975381
"890","Naples","Florida","Small","Bike",121,2,1.2,"FL","South","city",-81.7948103,26.1420358
"891","Nashua","New Hampshire","Small","Bike",71,0.2,0.2,"NH","Northeast","city",-71.467566,42.7653662
"892","National City","California","Small","Bike",161,0.6,0.4,"CA","West","city",-117.0991967,32.6781085
"893","Naugatuck","Connecticut","Small","Bike",0,0,0.2,"CT","Northeast","borough",-73.0506972,41.485921
"894","Neenah","Wisconsin","Small","Bike",73,0.6,0.4,"WI","North Central","city",-88.462609,44.1858193
"895","New Albany","Indiana","Small","Bike",29,0.2,0.2,"IN","North Central","city",-85.8241312,38.2856247
"896","New Bedford","Massachusetts","Small","Bike",119,0.3,0.2,"MA","Northeast","city",-70.934205,41.6362152
"897","New Berlin","Wisconsin","Small","Bike",70,0.3,0.3,"WI","North Central","city",-88.1084224,42.9764027
"898","New Bern","North Carolina","Small","Bike",18,0.2,0.2,"NC","South","city",-77.0441143,35.108493
"899","New Braunfels","Texas","Small","Bike",56,0.2,0.2,"TX","South","city",-98.1244531,29.7030024
"900","New Brighton","Minnesota","Small","Bike",36,0.3,0.3,"MN","North Central","city",-93.2018908,45.0655212
"901","New Britain","Connecticut","Small","Bike",54,0.2,0.2,"CT","Northeast","city",-72.7795419,41.6612104
"902","New Brunswick","New Jersey","Small","Bike",240,1,0.4,"NJ","Northeast","city",-74.4518188,40.4862157
"903","New Castle","Pennsylvania","Small","Bike",68,0.8,0.9,"PA","Northeast","city",-80.347009,41.0036719
"904","New Hope","Minnesota","Small","Bike",61,0.6,0.4,"MN","North Central","city",-93.3866185,45.0380201
"905","New Iberia","Louisiana","Small","Bike",48,0.4,0.4,"LA","South","city",-91.8187285,30.0035365
"906","New Lenox","Illinois","Small","Bike",12,0.1,0.2,"IL","North Central","village",-87.9656098,41.5119761
"907","New London","Connecticut","Small","Bike",16,0.1,0.1,"CT","Northeast","city",-72.0995209,41.3556539
"908","New Rochelle","New York","Small","Bike",30,0.1,0.1,"NY","Northeast","city",-73.7823549,40.9114882
"909","New Smyrna Beach","Florida","Small","Bike",44,0.5,0.5,"FL","South","city",-80.9269984,29.0258191
"910","Newark","California","Small","Bike",79,0.4,0.3,"CA","West","city",-122.0383968,37.5299765
"911","Newark","Delaware","Small","Bike",328,2.4,0.7,"DE","South","city",-75.7496572,39.6837226
"912","Newark","Ohio","Small","Bike",134,0.6,0.4,"OH","North Central","city",-82.4012642,40.0581205
"913","Newberg","Oregon","Small","Bike",173,1.6,1,"OR","West","city",-122.9469463,45.3064258
"914","Newburgh","New York","Small","Bike",67,0.6,0.7,"NY","Northeast","city",-74.0104178,41.5034271
"915","Newnan","Georgia","Small","Bike",16,0.1,0.2,"GA","South","city",-84.7996573,33.3806716
"916","Newport Beach","California","Small","Bike",378,0.9,0.4,"CA","West","city",-117.9298493,33.6188829
"917","Newport","Rhode Island","Small","Bike",333,2.4,1.1,"RI","Northeast","city",-71.3128285,41.4901024
"918","Newton","Massachusetts","Small","Bike",470,1.1,0.3,"MA","Northeast","city",-71.2092214,42.3370413
"919","Niagara Falls","New York","Small","Bike",72,0.3,0.2,"NY","Northeast","city",-79.0377388,43.0962143
"920","Nicholasville","Kentucky","Small","Bike",0,0,0.3,"KY","South","city",-84.5729961,37.8806341
"921","Niles","Illinois","Small","Bike",116,0.9,0.8,"IL","North Central","village",-87.8028402,42.0189191
"922","Noblesville","Indiana","Small","Bike",26,0.1,0.1,"IN","North Central","city",-86.0085955,40.0455917
"923","Nogales","Arizona","Small","Bike",8,0.1,0.2,"AZ","West","city",-110.9342532,31.3403775
"924","Norco","California","Small","Bike",14,0.1,0.2,"CA","West","city",-117.548661,33.9311257
"925","Norfolk","Nebraska","Small","Bike",55,0.5,0.4,"NE","North Central","city",-97.4137553,42.0327234
"926","Normal","Illinois","Small","Bike",317,1.2,0.4,"IL","North Central","town",-88.9906312,40.5142026
"927","Norristown","Pennsylvania","Small","Bike",182,1.1,0.8,"PA","Northeast","borough",-75.3399048,40.121497
"928","North Augusta","South Carolina","Small","Bike",24,0.3,0.3,"SC","South","city",-81.9651152,33.5018026
"929","North Chicago","Illinois","Small","Bike",9,0.1,0.1,"IL","North Central","city",-87.8411818,42.325578
"930","North Lauderdale","Florida","Small","Bike",98,0.5,0.5,"FL","South","city",-80.2258811,26.217305
"931","North Little Rock","Arkansas","Small","Bike",38,0.1,0.2,"AR","South","city",-92.2670941,34.769536
"932","North Miami Beach","Florida","Small","Bike",103,0.5,0.4,"FL","South","city",-80.1625463,25.9331488
"933","North Miami","Florida","Small","Bike",0,0,0.2,"FL","South","city",-80.1867138,25.8900949
"934","North Olmsted","Ohio","Small","Bike",20,0.1,0.1,"OH","North Central","city",-81.9234726,41.4156025
"935","North Plainfield","New Jersey","Small","Bike",136,1.1,0.9,"NJ","Northeast","borough",-74.4273743,40.6301025
"936","North Platte","Nebraska","Small","Bike",37,0.3,0.3,"NE","North Central","city",-100.7601454,41.1402759
"937","North Port","Florida","Small","Bike",139,0.6,0.2,"FL","South","city",-82.2359254,27.044224
"938","North Richland Hills","Texas","Small","Bike",42,0.1,0.1,"TX","South","city",-97.2289029,32.8342952
"939","North Ridgeville","Ohio","Small","Bike",17,0.1,0.2,"OH","North Central","city",-82.0190321,41.3894905
"940","North Royalton","Ohio","Small","Bike",42,0.3,0.2,"OH","North Central","city",-81.7245739,41.3136644
"941","North Tonawanda","New York","Small","Bike",28,0.2,0.2,"NY","Northeast","city",-78.8642033,43.038668
"942","Northampton","Massachusetts","Small","Bike",473,3.1,0.9,"MA","Northeast","city",-72.6412013,42.3250896
"943","Northbrook","Illinois","Small","Bike",27,0.2,0.2,"IL","North Central","village",-87.8289548,42.1275267
"944","Northfield","Minnesota","Small","Bike",212,1.9,0.7,"MN","North Central","city",-93.161604,44.4582983
"945","Northglenn","Colorado","Small","Bike",48,0.3,0.3,"CO","West","city",-104.9811468,39.8961821
"946","Northport","Alabama","Small","Bike",6,0.1,0.1,"AL","South","city",-87.5772293,33.229007
"947","Norton Shores","Michigan","Small","Bike",62,0.6,0.5,"MI","North Central","city",-86.2639461,43.1689044
"948","Norwalk","Connecticut","Small","Bike",81,0.2,0.1,"CT","Northeast","city",-73.4081575,41.117744
"949","Norwich","Connecticut","Small","Bike",6,0,0.1,"CT","Northeast","city",-72.0759105,41.5242649
"950","Novato","California","Small","Bike",133,0.5,0.4,"CA","West","city",-122.5697032,38.1074198
"951","Novi","Michigan","Small","Bike",100,0.4,0.3,"MI","North Central","city",-83.4754913,42.48059
"952","Oak Creek","Wisconsin","Small","Bike",12,0.1,0.1,"WI","North Central","city",-87.8631362,42.8858503
"953","Oak Forest","Illinois","Small","Bike",0,0,0.2,"IL","North Central","city",-87.7439384,41.6028116
"954","Oak Harbor","Washington","Small","Bike",12,0.1,0.2,"WA","West","city",-122.6484205,48.2882947
"955","Oak Lawn","Illinois","Small","Bike",37,0.1,0.1,"IL","North Central","village",-87.7479528,41.719978
"956","Oak Park","Michigan","Small","Bike",47,0.4,0.4,"MI","North Central","city",-83.1827051,42.4594803
"957","Oak Park","Illinois","Small","Bike",462,1.7,0.6,"IL","North Central","village",-87.7845025,41.8850317
"958","Oak Ridge","Tennessee","Small","Bike",13,0.1,0.1,"TN","South","city",-84.2696449,36.0103561
"959","Oakdale","California","Small","Bike",81,1,0.7,"CA","West","city",-120.8471545,37.7665947
"960","Oakdale","Minnesota","Small","Bike",43,0.3,0.2,"MN","North Central","city",-92.9649361,44.9630216
"961","Oakland Park","Florida","Small","Bike",166,0.8,0.5,"FL","South","city",-80.1319893,26.1723065
"962","Oakley","California","Small","Bike",90,0.6,0.4,"CA","West","city",-121.7124536,37.9974219
"963","Ocala","Florida","Small","Bike",210,1,0.5,"FL","South","city",-82.1400923,29.1871986
"964","Ocoee","Florida","Small","Bike",0,0,0.2,"FL","South","city",-81.5439619,28.5691677
"965","O'Fallon","Illinois","Small","Bike",20,0.1,0.2,"IL","North Central","city",-89.910991,38.592323
"966","O'Fallon","Missouri","Small","Bike",41,0.1,0.1,"MO","North Central","city",-90.6998477,38.8106075
"967","Ogden","Utah","Small","Bike",223,0.6,0.3,"UT","West","city",-111.9738304,41.223
"968","Olive Branch","Mississippi","Small","Bike",0,0,0.2,"MS","South","city",-89.8295315,34.9617604
"969","Olympia","Washington","Small","Bike",950,4.1,1.2,"WA","West","city",-122.9006951,47.0378741
"970","Opelika","Alabama","Small","Bike",24,0.2,0.1,"AL","South","city",-85.3782795,32.6454116
"971","Oregon City","Oregon","Small","Bike",52,0.4,0.3,"OR","West","city",-122.6050422,45.3364465
"972","Oregon","Ohio","Small","Bike",0,0,0.3,"OH","North Central","city",-83.4868768,41.6436603
"973","Orem","Utah","Small","Bike",539,1.3,0.4,"UT","West","city",-111.6946475,40.2968979
"974","Orland Park","Illinois","Small","Bike",42,0.2,0.1,"IL","North Central","village",-87.8539425,41.6303103
"975","Ormond Beach","Florida","Small","Bike",161,1,0.5,"FL","South","city",-81.0558894,29.2858129
"976","Oro Valley","Arizona","Small","Bike",62,0.4,0.3,"AZ","West","town",-110.966488,32.3909071
"977","Oshkosh","Wisconsin","Small","Bike",380,1.2,0.5,"WI","North Central","city",-88.5426136,44.0247062
"978","Ossining","New York","Small","Bike",7,0.1,0.1,"NY","Northeast","village",-73.8615246,41.1628731
"979","Oswego","Illinois","Small","Bike",13,0.1,0.1,"IL","North Central","village",-88.3514596,41.6828074
"980","Ottumwa","Iowa","Small","Bike",75,0.7,0.6,"IA","North Central","city",-92.4083022,41.0160293
"981","Oviedo","Florida","Small","Bike",39,0.2,0.3,"FL","South","city",-81.2081203,28.669997
"982","Owasso","Oklahoma","Small","Bike",43,0.3,0.3,"OK","South","city",-95.8547119,36.2695388
"983","Owatonna","Minnesota","Small","Bike",90,0.7,0.5,"MN","North Central","city",-93.2259349,44.0855572
"984","Owensboro","Kentucky","Small","Bike",144,0.6,0.3,"KY","South","city",-87.1111676,37.7719074
"985","Oxford","Alabama","Small","Bike",4,0,0.1,"AL","South","city",-85.8349648,33.6142714
"986","Oxford","Mississippi","Small","Bike",108,1.3,1,"MS","South","city",-89.5192484,34.3664951
"987","Oxford","Ohio","Small","Bike",158,1.8,1,"OH","North Central","city",-84.745231,39.5069974
"988","Pacifica","California","Small","Bike",22,0.1,0.1,"CA","West","city",-122.4869194,37.6138253
